UNITID,INSTNM,CITY,SAT_AVG_ALL,ZIP,STABBR,REGION,LATITUDE,LONGITUDE,PRESTIGE_NOTEST,PRESTIGE_TEST,SIZE_SMALL,SIZE_MED,SIZE_LARGE,RACE_DIVERSITY,AFFORD,FIN_AVAIL,GENDER_EQUITY,OUTCOMES,RET_AND_COMPLETE,TYPE,COMPETE,LOCALE,dist,DIST_GEO,TST_RANK,LOC_RANK,SCORE
100654,Alabama A & M University,Normal,957,35762,AL,5,34.783368,-86.568502,3.340233007076204,8.957309601144521,97.14190788257548,33.59941533527679,28.9890901530047,62.698930465799634,71.79010686884575,53.73956722134521,57.91496216862493,23.96130971555038,31.184755675469916,0,81.99201452155162,1,721881.9284406924,86.55563288287144,33.398058252427184,0,41.97718141490979
100663,University of Alabama at Birmingham,Birmingham,1220,35294-0110,AL,5,33.505697,-86.799345,34.1305771943837,44.194051549992636,68.82795835528339,95.78842099158659,28.303925688815895,28.152482554634865,67.72820410388816,61.65741502170741,51.613495586588485,30.01926308897894,49.12492029381246,0,85.83457756587735,1,857482.5982532639,84.11735157295034,84.46601941747572,0,43.47570259066126
100706,University of Alabama in Huntsville,Huntsville,1314,35899,AL,5,34.724557,-86.640449,11.63283387694139,23.865375189780046,88.3800649622329,97.4646080250024,28.89433649750102,23.638434711953302,63.53474328033462,46.79274976827502,46.02604581251177,36.05366130586894,45.4669960302291,0,67.51138007650981,1,730837.9527354199,86.39374144328991,94.73684210526316,0,38.37640167716294
100724,Alabama State University,Montgomery,972,36104-0271,AL,5,32.364317,-86.295677,1.0942455734761483,5.448963749302569,97.94263400637766,34.02474361981424,29.2767298086432,58.0621322816392,68.46881604723225,63.07612684602174,55.600384561610696,22.378790269053177,29.605128748479355,0,95.83260801099364,1,955486.2846433057,82.37227427757028,36.310679611650485,0,42.66567786155484
100751,The University of Alabama,Tuscaloosa,1252,35487-0100,AL,5,33.211875,-87.545978,9.950842601004908,19.136637100692393,31.62356415100824,33.268293494958215,98.81116214282625,20.65210465420116,56.38185255204194,48.110666328118285,53.041392542576624,31.27179024427022,64.6835501369322,0,38.18144387291236,1,918584.5228376269,83.02766592009377,90.67961165048544,0,39.948704937900324
100830,Auburn University at Montgomery,Montgomery,1084,36117-3596,AL,5,32.36736,-86.177544,2.3910034580804,9.489165778767047,97.93276826204462,34.08695731258124,29.27412692591687,34.6488594017994,78.29836581916662,68.52269411953343,52.23870999870028,28.052312867680172,32.998875439201406,0,87.04787276930895,1,951306.527709436,82.44640609859366,58.05825242718446,0,40.09865731662871
100858,Auburn University,Auburn,1289,36849,AL,5,32.599378,-85.488258,12.474108557629519,23.669047756751205,45.15611020036226,32.74120019970329,98.61996112773095,19.604705958256254,55.386126001401934,53.00925047090364,47.991720333980375,34.87446998794053,71.67484917485426,0,59.42674060834813,1,906136.3372368419,83.24921166702532,97.86407766990291,0,44.46229618892512
100937,Birmingham-Southern College,Birmingham,1232,35254,AL,5,33.513774,-86.850552,16.005815563814895,28.741990321152777,99.74084064724406,34.89467265214901,29.795268902128893,21.64341290428725,45.5980528286685,59.66653614432596,52.27045867241923,29.47655843352235,60.142104492290784,1,35.45566496444275,1,858788.4158239417,84.0940052260728,86.79611650485437,0,32.58107490425123
101189,Faulkner University,Montgomery,1069,36109-3390,AL,5,32.384181,-86.21641,11.576270776527927,15.769530005628473,95.76417044575942,32.35169325357087,28.507971753340637,29.412219411718834,54.754762684050064,47.20021423291608,53.32110527273002,28.76202914959228,18.075275527313643,1,30.72715211417077,1,950809.6799959628,82.4552198898756,55.14563106796116,0,30.040913584081846
101435,Huntingdon College,Montgomery,1100,36106-2148,AL,5,32.351034,-86.284366,14.669499554959662,22.799708441337728,99.69770828335015,34.826698677791185,29.74334717410419,19.12358295830648,57.60244939091401,64.3894522373791,55.2300728740169,28.94318297760742,38.73310204972847,1,37.433389844203525,1,956496.6960429716,82.35435763583266,61.165048543689316,0,31.621714676387015
101480,Jacksonville State University,Jacksonville,1135,36265,AL,5,33.822938,-85.765321,11.294340322465235,17.160698146577698,92.7241245772858,98.07812707855062,29.140312642778838,20.36905125235228,68.1023052292484,58.38270604267171,57.035266520958245,22.966005948010363,41.46829227362084,0,32.872317134318934,2,786206.8700238665,85.39554795751202,67.96116504854369,0,29.915820736661107
101587,University of West Alabama,Livingston,1059,35470,AL,5,32.588132,-88.186329,17.140353043882556,19.765253363158003,90.90778908365796,29.10942575128476,26.863854198858196,25.50890236213405,75.27583723085867,55.69480494544959,57.67730532907865,22.096445686390616,26.313841410266903,0,18.99586663200686,3,1008388.6352308384,81.43626603034815,53.20388349514563,0,27.521449149093886
101693,University of Mobile,Mobile,1094,36613-2842,AL,5,30.793247,-88.128934,14.632873289012572,18.90754796697044,97.63344394835639,33.4864045099636,29.079787488586298,17.62662297651365,60.15097114877221,77.82137357718699,52.79481529794287,23.374021010208264,41.73925719322618,1,25.528313011832825,3,1183989.804019681,78.35940703892722,60,0,27.966709749578918
101709,University of Montevallo,Montevallo,1170,35115-6000,AL,5,33.10625,-86.865099,16.41376790182967,22.520278339626365,97.79634432885024,33.722135358353334,29.179068478910498,23.342675471604977,66.84359915237336,62.701791989370314,52.736770528899584,20.955890237873966,46.2643355319974,0,26.912607305346423,2,900188.0293814231,83.35515829693466,74.75728155339806,0,29.427145024696816
101879,University of North Alabama,Florence,1134,35632-0001,AL,5,34.80731,-87.680407,8.244610573472457,14.906656275629032,94.30516431442639,97.7032943211205,28.911432856503684,18.437349555671354,74.53690490206498,67.9192521232547,55.989904770444696,21.63902973336165,46.691548478307844,0,44.528307626602896,1,774835.1347982836,85.6001831311801,67.76699029126213,0,31.478054211036806
101912,Oakwood University,Huntsville,999,35896,AL,5,34.756344,-86.652705,8.766518584127564,12.053651793677304,99.25440842396463,34.61795962659754,29.66179522154435,69.14378430929567,48.496353177280064,46.35703859407163,58.79986629178996,20.468642556732974,41.83348444288927,1,46.482910558767514,1,728338.2880409181,86.43891394005003,41.55339805825243,0,36.485584392725805
102049,Samford University,Birmingham,1228,35229-2240,AL,5,33.464128,-86.791799,6.287070058018475,16.093906858770826,94.16666090402009,31.47864479145076,28.043386386498856,19.059049992686067,43.817413897748835,56.64223667603738,49.17290302146795,31.333557674068526,65.41550713184095,1,69.3790989210994,2,861327.7614039977,84.04861229579163,86.01941747572815,0,36.41894684821209
102094,University of South Alabama,Mobile,1186,36688-0002,AL,5,30.696033,-88.178711,10.582991982309494,19.426144251723933,78.98880371005575,96.49610055247571,28.52043346958225,23.767543219056968,68.49680609683301,54.327760062034514,53.830258385555375,26.247642939535506,43.58234018948571,0,65.14072526972829,1,1195811.884893028,78.15392297639549,77.86407766990291,0,35.359828054169206
102234,Spring Hill College,Mobile,1130,36608-1791,AL,5,30.694751,-88.138199,15.558786285497172,22.234317241676116,98.35761651824927,33.9636068240839,29.319204263433875,19.690531285194204,56.16389071277775,78.43233617009702,53.97376202566335,29.351610711644543,56.40814608233047,1,46.33010470558001,1,1194333.415905982,78.1796093430164,66.99029126213593,0,33.08867726860186
102270,Stillman College,Tuscaloosa,997.896129136,35401,AL,5,33.200006,-87.585278,24.90460451061246,24.90460451061246,99.67614862228521,34.75346315324781,29.703503755569297,59.273129005317756,70.63823566731136,59.90881609744822,56.819689494921775,21.595711827873085,26.33978817204838,1,18.126823206629393,1,921508.9213733984,82.97565282953393,41.33905420116505,0,32.25138358452649
102368,Troy University,Troy,1082,36082-0001,AL,5,31.799583,-85.95802,2.768863888269901,9.554082295673712,71.52922991184153,97.53837838882993,29.20939124044724,25.39801593626177,73.42356576095615,61.36133725055795,53.48695093992609,24.13812559147387,36.10285119166477,0,78.33588249986242,3,1004363.5913047367,81.5073342028157,57.66990291262136,0,36.797679117891526
102377,Tuskegee University,Tuskegee,1119,36088-1920,AL,5,32.4309,-85.708492,22.48392119124297,27.58029511506901,97.23405990264955,33.377021380050465,28.990330872625332,63.3016959476138,37.48253197452918,13.915985336985452,53.12336437459207,28.48203005991804,49.540252671762254,1,30.261259512362074,3,930256.5142417649,82.82014545510089,64.85436893203884,0,34.948529045141235
102553,University of Alaska Anchorage,Anchorage,1022.0429272700001,99508,AK,8,61.190163,-149.82619,6.524771373360549,6.524771373360549,81.40210660213353,99.02250145121778,29.84775006972806,20.909785469209876,77.44828796745043,62.48293325391781,55.38834849724891,32.08201229190674,25.879202784158938,0,67.94133094093199,1,5002833.314140889,22.879743326495436,46.027752867961176,0,28.696467937882197
102614,University of Alaska Fairbanks,Fairbanks,1128,99775,AK,8,64.85756,-147.823146,23.459719526230675,30.24527116730342,97.16564488416392,33.6356692798103,29.1106827213037,18.812471942993355,81.06618454710113,67.81822052154781,52.50708659431261,26.820981957797592,24.286247302344705,0,60.40937097732917,2,4888714.36227237,24.22075943899025,66.60194174757281,0,29.309583332014938
102669,Alaska Pacific University,Anchorage,1083.701938832,99508,AK,8,61.190968,-149.804168,14.392312332891468,14.392312332891468,93.61940879096038,30.719235411212285,27.780573695655193,5.611004190285196,51.17144196075102,70.47456444106723,57.22498582954769,30.8562125524821,44.059562535927526,1,72.79197809697335,1,5001648.566340385,22.89356505550714,58.00037647223301,0,28.25079402671703
104151,Arizona State University Campus Immersion,Tempe,1222,85287,AZ,6,33.417721,-111.934383,4.1585615905635915,13.97308624729602,19.35075088343082,33.15962968900024,98.73750562533323,27.536074703533572,75.13050499186619,77.7767465555044,47.89331619006626,38.21930092680283,52.59546532619405,0,73.63789504373379,1,2730992.659635606,53.25046493716414,84.85436893203884,0,44.06932151533579
104179,University of Arizona,Tucson,1198,85721-0066,AZ,6,32.232672,-110.950815,33.973926524491375,43.221739434104535,28.544239489585628,32.572306214292226,98.53192382767953,29.43854480111751,70.88272229105145,65.2667207474083,51.11469464649588,35.45931480050086,54.032807118808925,0,73.06278148966797,1,2706863.5927853566,53.614554452543764,80.19417475728156,0,46.96239230349293
104586,Embry-Riddle Aeronautical University-Prescott,Prescott,1191.807759132,86301-3720,AZ,6,34.616766,-112.449741,7.962047585320759,7.962047585320759,99.36149998131108,34.79806969113165,29.664968294233873,22.146468770476275,48.30200116245345,67.75428138498079,40.41270117944845,78.42150905154904,50.06173307574127,1,48.20613597705122,3,2720845.4106106507,53.40347296951709,78.99179788970874,0,35.84630100612973
104717,Grand Canyon University,Phoenix,1025.04593568,85017,AZ,6,33.513231,-112.129929,8.133880564573644,8.133880564573644,11.110516169720125,30.90642921028634,97.54687572080314,27.02291055226898,61.50827638393457,73.60545301579494,51.26004832208393,26.355559841892717,26.662189674683226,1,56.26032571354598,1,2743003.0742964093,53.06956212820981,46.61086129708737,0,37.92216173557343
105330,Northern Arizona University,Flagstaff,1107.933533342,86011-4092,AZ,6,35.188449,-111.653724,9.981372969000205,9.981372969000205,41.21185017642135,33.40263736900192,98.93821231940804,24.22325534067309,72.92186269768766,70.24601381414244,54.26431350171499,29.461218183944396,41.37057210560664,0,70.2207863549446,1,2629670.0143255107,54.78521011666358,62.70554045475726,0,41.33865482859527
105589,Prescott College,Prescott,1000.8409706680001,86301,AZ,6,34.5452,-112.477185,14.551182513538206,14.551182513538206,92.53106199357339,29.99402448901505,27.394224755040916,26.340244867505305,60.75659781200973,84.82230121698608,60.11994019206387,21.153234766111314,32.524485483118866,1,91.1829690070758,1,2726221.9358210578,53.32238235784509,41.9108680908738,0,35.92931752667943
105899,Arizona Christian University,Glendale,1032,85306-3216,AZ,6,33.622952,-112.181776,15.109177356474026,20.609171771556333,99.69770828335015,34.77714829970003,29.725815447789817,23.366757943232873,62.44858038914981,66.19425067914364,45.04928686408314,21.052039474034064,28.187489442232067,1,35.21077907560132,2,2742286.8587827184,53.080343819088384,47.96116504854369,0,26.736563545386893
106245,University of Arkansas at Little Rock,Little Rock,1099,72204,AR,5,34.723254,-92.339778,6.512145662591761,13.226228306792065,90.76652433192297,96.67335598466735,28.499497429633273,29.8925234636054,77.16192723837575,78.8144959063363,52.83648304954073,26.510643266707113,28.982566486049198,0,65.17085232400768,1,1080387.1313485333,80.16912752079236,60.970873786407765,0,35.91166266174598
106342,Lyon College,Batesville,1195,72501,AR,5,35.777619,-91.625354,15.059239208220411,21.949050167501166,99.78399040015665,34.85678827467126,29.80974746723514,20.352923473065587,65.53163727473303,76.85308580636067,50.00747860963168,26.926088325685225,38.55536926315603,1,28.272826391342967,3,958301.4347626121,82.32235976910134,79.6116504854369,0,30.115560589127877
106397,University of Arkansas,Fayetteville,1238,72701,AR,5,36.070009,-94.176981,14.513510941293688,24.542019805677263,47.82590565340279,33.09615760388424,98.81332758392034,20.57714526976254,68.34528116597843,62.88966990301411,52.20048787730724,31.012777203174945,58.40574470010539,0,62.39858848489623,1,1137868.595391882,79.1630603006563,87.96116504854369,0,44.37067104990257
106412,University of Arkansas at Pine Bluff,Pine Bluff,978,71601,AR,5,34.244031,-92.018683,15.208670488831498,16.220981609468385,99.0581929285425,34.57768725441504,29.58108798648516,54.92717730911839,78.72551002495082,68.41447053758664,55.840011041258315,21.178235240365222,33.67112257770511,0,23.038305927470383,1,1091849.400910013,79.96811419767323,37.47572815533981,0,31.516718333421444
106458,Arkansas State University,Jonesboro,1189,72401,AR,5,35.842388,-90.679988,5.213062399541145,14.207152736064728,82.92532785931877,96.25376964035065,28.3329012640401,20.686863518619163,71.29783742321784,72.03528256919249,56.05199821017734,23.60385927945999,39.433822149416955,0,62.0158273105448,1,884879.5834698483,83.6280643264705,78.44660194174757,0,34.41634130965498
106467,Arkansas Tech University,Russellville,1032.415450622,72801-2222,AR,5,35.293237,-93.13562,2.120247591160259,2.120247591160259,88.61752024585772,98.53756400206674,29.44062802926664,18.462534257626828,77.5470470405647,65.05153711983499,55.026222787801956,24.441332527912856,32.981162438504235,0,82.63484473826064,3,1101720.4731467662,79.79516347285686,48.041835072233006,0,35.83043316355577
106704,University of Central Arkansas,Conway,1186,72035-0001,AR,5,35.077945,-92.457672,2.2588591882520235,11.803178460036312,84.68819040611602,98.03231300584685,29.26780094768585,22.70452118583182,73.08217557855218,57.94823392673899,56.667946845140804,26.407201256737558,39.1206748126811,0,84.09887931514862,1,1065015.8110559345,80.43900285699657,77.86407766990291,0,37.95039606195232
106713,Central Baptist College,Conway,1004,72034,AR,5,35.083838,-92.445021,13.199612613316706,18.121784074902294,99.76241335007302,34.836273967281265,29.78854643272929,22.4138538911604,73.89358048314487,51.139798314411074,50.66075189575147,23.764331327346934,31.4662547574056,1,40.1486764219829,1,1063698.7363790225,80.46214330317038,42.52427184466019,0,30.787384025088542
107044,Harding University,Searcy,1222,72149-5615,AR,5,35.247386,-91.726143,6.229629147782536,15.716691994455733,96.28106389671024,32.91648725060114,28.710852993575052,15.280386076471585,51.64029025654922,59.426355098206905,52.277685237264976,26.941430765221412,63.981778165198385,1,58.26667593916842,3,1000408.3540335121,81.57719349270604,84.85436893203884,0,33.46658388420255
107071,Henderson State University,Arkadelphia,1116,71999-0001,AR,5,34.128155,-93.059703,2.2701183253863793,10.041347060920577,97.34617436834874,33.51380196192473,29.049652270545113,22.859855139662585,74.98345028290228,71.19341541953693,56.67088156448354,24.791516378079805,32.05539361100722,0,83.16110587547254,3,1173405.356710058,78.54355708504407,64.27184466019418,0,37.26391357259968
107080,Hendrix College,Conway,1346,72032-3080,AR,5,35.101565,-92.443256,9.994065523961627,22.338039591823215,99.70886519147551,34.87804140552802,29.809945776667128,17.74874515645802,45.34699034000154,76.94511653826571,54.359637001857735,24.06850724922605,66.82533841724027,1,54.826805602498915,1,1062400.9917374963,80.48494667224,82.70676691729324,0,33.78743350730667
107141,John Brown University,Siloam Springs,1257,72761,AR,5,36.189812,-94.560283,5.279683398313757,15.821029600218111,95.49524027603753,32.091076229425404,28.36588447277008,21.01339780981585,48.7082648890486,58.96266487065854,48.39999771994418,34.5203761498615,50.86690671326945,1,61.92766359956451,3,1162201.7711645155,78.73866197068858,91.6504854368932,0,35.15525692642242
107512,Ouachita Baptist University,Arkadelphia,1193,71998-0001,AR,5,34.126093,-93.052471,12.933624393261985,24.986788234532444,99.74084064724406,34.93200148926326,29.808476449298706,17.44275196023227,59.48719939244899,72.18410327662825,52.39586062867956,25.363614544290883,54.78563591324926,1,43.609775120242794,3,1173034.1352462843,78.5500187086737,79.22330097087378,0,32.110480799692
107558,University of the Ozarks,Clarksville,1079,72830,AR,5,35.476278,-93.467221,17.767082220251538,24.233415469473123,99.67614862228521,34.776444963997854,29.711635092438968,21.180706975924146,76.51523493358765,90.14866001005596,52.3132509988765,22.55733314003123,40.90919357220626,1,30.779133832244714,3,1115816.5368022826,79.54844004112522,57.0873786407767,0,30.38382064180631
107877,Williams Baptist University,Walnut Ridge,1034,72476,AR,5,36.125676,-90.940277,10.20883288433474,13.874894488346213,99.1631170883816,34.38820767472815,29.536102905730534,20.30370957254562,69.2318733426315,61.32857181816289,50.37016838445975,21.834114174909754,38.96153354366314,1,35.15523976342513,3,885486.8993000083,83.6172309213221,48.349514563106794,0,29.496313729720782
107983,Southern Arkansas University Main Campus,Magnolia,1105,71753,AR,5,33.291618,-93.235922,6.891571973560157,13.210763870824422,96.26903168558609,32.80164999347072,28.65722348507896,21.638035412215647,75.27630133651175,74.14044889867495,55.02424254591325,25.11094826732674,26.83638163473125,0,50.238099311065355,3,1246476.9366229281,77.27566750805322,62.13592233009709,0,31.887356292879197
109785,Azusa Pacific University,Azusa,1147,91702-7000,CA,8,34.130047,-117.888375,7.744730806837555,14.85705572086961,91.28498069345977,95.31685590241199,27.795231215244044,34.36754324295673,45.84529228358959,70.97950797883686,54.05330080010765,39.77153341459724,42.14913318914832,1,49.88116017344491,2,3202775.4967837567,46.30697989637,70.29126213592232,0,31.689677167960483
110097,Biola University,La Mirada,1170,90639-0001,CA,8,33.906203,-118.014374,6.347190603542211,14.329552487021004,94.5396152296149,31.776800958338004,28.161557522382374,25.657131036650902,38.001888757037406,61.45160896157447,49.140029541487344,28.142149657070444,65.69662404823286,1,56.63913369297068,2,3223263.1124273175,46.013011923996,74.75728155339806,0,30.05064927773811
110361,California Baptist University,Riverside,1103,92504-3297,CA,8,33.929321,-117.425619,4.692035696173495,11.456503849550218,86.80251054965834,97.17807602899273,28.799995157581503,31.380041554274726,45.48295965542082,76.73786546140306,53.671157913989354,36.88659430717178,49.61029250370576,1,65.50270584576214,1,3172303.840054192,46.7453684669686,61.74757281553398,0,33.46200075336577
110370,California College of the Arts,San Francisco,1156.221521126,94107-2247,CA,8,37.767485,-122.399451,4.685428095185004,4.685428095185004,96.9383910037043,33.0585382440328,28.884337188912976,27.991442027555415,25.1017856544167,65.24410531069566,56.42915456065097,33.25691410991978,58.36009121185238,1,79.1799120907706,1,3445171.1064815363,42.86926700228871,72.0818487623301,0,33.23376729233106
110404,California Institute of Technology,Pasadena,1566,91125,CA,8,34.137349,-118.125878,89.82965774188285,93.17764672408549,91.30326611784965,29.292282062193394,27.097384992813485,36.06350275319042,54.60390725642562,83.30031172904043,38.70678530060731,95.46673068997767,80.52753099356853,1,1.2820925516713153,1,3222608.63635734,46.0223929899835,0,0,41.73256605289613
110413,California Lutheran University,Thousand Oaks,1163,91360-2787,CA,8,34.224566,-118.878924,7.553681900443988,15.321634861405782,95.11827535507155,32.02186917931045,28.281002062474876,33.91777488420652,42.603709733386815,65.97019443044114,55.68194620147105,39.13081003296272,60.16824810778512,1,53.86302554270434,1,3282729.949963586,45.1633116692343,73.39805825242718,0,32.36094604160725
110422,California Polytechnic State University-San Luis Obispo,San Luis Obispo,1339,93407,CA,8,35.299513,-120.65731100000001,21.45390156858852,29.901643565203994,54.059367909399164,34.190565486147534,99.33856758707438,24.388677294285642,57.291968991404815,54.7590637964156,44.59233803892474,56.99764566776195,75.20750871265464,0,11.978163980245071,2,3388836.6269261725,43.660359751471205,85.33834586466165,0,36.813706028491055
110486,California State University-Bakersfield,Bakersfield,1099.6780794659999,93311-1099,CA,8,35.350005,-119.104711,9.153007988181246,9.153007988181246,84.18554691442995,98.11497963155006,29.223306058520098,46.379975758377356,89.6850662295853,93.77679935373304,53.732063850100054,40.81316573824829,41.39559055433848,0,39.87647316670444,1,3255206.24083188,45.55592906128322,61.1025397021359,0,32.07964385841917
110495,California State University-Stanislaus,Turlock,1146.65667356,95382-0299,CA,8,37.52577,-120.852511,3.26736887304409,3.26736887304409,84.05806315873252,98.30898288090197,29.347940645735335,44.1269344641098,90.11876315027361,94.518470873860707,52.19781061090303,41.91512817909161,51.03522833106634,0,75.31190666840173,2,3323224.343926019,44.587735870319065,70.22459680776697,0,37.172710692367275
110510,California State University-San Bernardino,San Bernardino,991,92407-2393,CA,8,34.182622,-117.323801,10.899710534372442,13.235522327434854,60.71797894507064,33.26481814215488,98.80630925339702,52.17438241403855,86.6127107084916,89.8152526244109,55.34494776367991,39.03882910052382,53.480474216659836,0,33.444100731652306,1,3152598.6227398864,47.02960390474627,40,0,40.16007507920979
110529,California State Polytechnic University-Pomona,Pomona,1143,91768,CA,8,34.057912,-117.821476,10.810600368895045,17.059280371474685,45.52838137329071,33.86661584568233,99.08236559145338,45.23683361568034,75.39102922550896,79.08980832038307,47.68932106172965,48.93052572458055,64.79213205214558,0,33.79167726690699,2,3200241.6299209623,46.34338098368035,69.51456310679612,0,40.97224293091941
110538,California State University-Chico,Chico,1092,95929-0150,CA,8,39.729712,-121.844859,7.902988600897001,13.601422965693324,65.09154983166746,33.86656630759433,99.16786898075989,29.928533737070495,72.21699741938795,83.79620726038519,52.69603032186172,39.51663849918599,59.883354849256555,0,45.68345423483668,1,3339356.0843683854,44.359128586398334,59.61165048543689,0,39.188123911170266
110547,California State University-Dominguez Hills,Carson,1110.792327246,90747-0005,CA,8,33.864766,-118.255917,8.218355156596775,8.218355156596775,69.96541450244352,97.76479015278838,29.259725433300222,58.74824754126682,93.50659130920594,96.06548231738147,55.57750494841253,39.21952515372871,39.79981187698177,0,44.03062921765972,1,3245583.1963644233,45.693466815738496,63.26064606718447,0,33.961802846564815
110556,California State University-Fresno,Fresno,1019,93740,CA,8,36.811154,-119.744569,10.075573959229228,13.341141091415576,51.28753758967634,33.35370743506051,98.89519543920159,45.484749337555044,89.2318467800656,91.87740651074236,55.13129447158164,39.88223716150683,49.035785702926255,0,36.43226585393411,1,3254417.92355592,45.56719089780361,45.43689320388349,0,39.86159121016474
110565,California State University-Fullerton,Fullerton,1124,92831-3599,CA,8,33.881506,-117.885446,14.916427595719577,19.618292889324724,28.182801562512537,33.30357699469771,98.784255174352,42.341864303207615,85.75715066743906,87.97851652307935,55.644446057360355,39.62351725906202,59.956228061851576,0,22.197656060244128,2,3213416.7028324744,46.15421527932204,65.8252427184466,0,37.970736897822526
110574,California State University-East Bay,Hayward,1124.591238112,94542,CA,8,37.657694,-122.054135,6.2194719307792825,6.2194719307792825,72.96361710289594,97.6403101972143,29.13300630920492,41.29641737046458,80.05576339901728,82.89823561045293,56.576221587398976,49.24914840220043,41.73386387738703,0,54.04137341925258,2,3419850.667291445,43.22424777596526,65.94004623533979,0,34.164461606417774
110583,California State University-Long Beach,Long Beach,1146,90840-0115,CA,8,33.782818,-118.11204,20.689322119251816,24.436428362031474,32.44785468247256,33.11902955963508,98.72912894279622,43.05888883138718,84.67389442225608,87.5336517493758,57.243985709093806,42.99444978921635,61.10775270363088,0,12.671343456949371,1,3237011.484576526,45.81609525324621,70.09708737864078,0,37.51650093414795
110592,California State University-Los Angeles,Los Angeles,978,90032-8506,CA,8,34.066927,-118.168965,15.662588764313012,16.43717906538088,45.881313613723734,33.21074431606701,98.8008303188922,59.49782876252567,92.42474442400251,96.3878826010643,56.834592452628605,45.83235195264436,42.74718162944983,0,20.553598930385775,1,3229328.6254364033,45.92610120977484,37.47572815533981,0,40.18123169640684
110608,California State University-Northridge,Northridge,1027,91330,CA,8,34.240126,-118.529319,12.2507167113678,15.16340813697596,27.8956787368411,33.34993815565647,98.79531340792985,40.0711701722657,86.0087527299162,88.39561883790839,56.04772422145957,42.421683313924625,47.94082511434728,0,29.046084353126407,1,3252394.521411332,45.59610132065673,46.99029126213592,0,38.492309270901885
110617,California State University-Sacramento,Sacramento,1030,95819-2694,CA,8,38.559415,-121.423549,8.309569863165962,12.306937803030797,38.29499457936701,33.59355468541781,98.94939725973703,37.09832336050823,82.58898137359188,82.48646234929939,55.547654621918355,43.6972269612126,47.58370847055862,0,43.93142511745731,1,3338011.6399987694,44.3781661720966,47.57281553398058,0,40.162719226368246
110635,University of California-Berkeley,Berkeley,1448,94720,CA,8,37.871918,-122.260463,34.542734467543745,42.17974019710544,31.75736707716912,31.985294832000772,98.1978368422327,32.34971067113767,69.07886247693888,80.22710594868164,49.91550548108676,63.02761653161725,75.385767256039,0,3.9273874951274133,1,3430035.8165274533,43.08134117849327,44.360902255639104,0,39.20967323149769
110644,University of California-Davis,Davis,1292,95616-8678,CA,8,38.539667,-121.749567,17.543754092944553,25.463925989349672,33.174716474325876,32.77227677738499,98.59206089763158,34.02726488318767,72.49081446489662,83.1393741786662,52.66829974010513,53.75666634633669,74.0708495200418,0,20.171249345419838,2,3365900.288207048,43.983812526153315,98.44660194174757,0,39.05510292703597
110653,University of California-Irvine,Irvine,1316,92697,CA,8,33.648434,-117.841248,23.21911192343771,30.39374613807543,35.11999799908403,33.01031680863994,98.73748828189433,38.58504632035971,67.89124413886141,80.10982553639172,51.83622666058492,56.19420632084591,75.82743819298219,0,11.068201964683524,1,3220047.108516114,46.05911534538109,93.98496240601504,0,39.156104650217095
110662,University of California-Los Angeles,Los Angeles,1423,90095-1405,CA,8,34.07178,-118.442179,38.29030894460745,43.64313205500041,30.41341368084486,31.866215329058598,98.15623161913297,35.43155252046991,68.45646574674365,78.44745080858043,53.343368539139426,56.01534214027992,77.47012137576904,0,3.6186808787228006,1,3252297.510589345,45.59748756800514,53.75939849624061,0,38.9810019812826
110671,University of California-Riverside,Riverside,1229,92521,CA,8,33.97246,-117.32741,13.027761549676983,20.72970326171146,53.662247690775835,33.20544539498878,98.84836637224535,50.72622029814798,70.23835361360143,91.63013631701588,53.262717921162604,42.999033389320175,73.74711122862607,0,28.985462637652233,1,3162075.310555577,46.89283595425167,86.2135922330097,0,40.75580536336565
110680,University of California-San Diego,La Jolla,1372,92093,CA,8,32.877749,-117.235866,22.582006910768914,31.325914276534352,33.79202440691185,32.73553408610113,98.58654804944759,36.96545559134408,68.38229751467328,88.34668756796883,50.77367237907961,57.83450583003531,78.18160022865129,0,11.90593923975742,1,3204231.7718599113,46.28606365920182,72.93233082706767,0,39.62954219006492
110705,University of California-Santa Barbara,Santa Barbara,1360,93106,CA,8,34.416297,-119.846426,20.526750157400954,29.70579394445173,48.57841798350772,33.486745857955626,98.96583945214451,33.731392361115894,67.65733458870415,77.95028338052087,54.274451070462305,48.875208547832834,73.46844264616057,0,13.348550630446674,2,3356604.5727789924,44.11512711610379,77.44360902255639,0,37.5793436891397
110714,University of California-Santa Cruz,Santa Cruz,1311,95064-1011,CA,8,36.995584,-122.058801,13.719272822122914,23.446417751115206,60.96782411654216,33.6492727007332,99.1056894911813,33.62182835331504,64.24785977151713,80.4798723065919,53.99892520109148,40.39031453684467,70.94394706733382,0,25.842384143288143,1,3443140.106823337,42.89770521850812,95.86466165413533,0,37.46079938212878
111081,California Institute of the Arts,Valencia,1180.357982036,91355-2397,CA,8,34.39327,-118.566837,27.25168633507164,27.25168633507164,94.88543876135387,31.658902233902566,28.236425087787296,29.89601987034883,16.32469464612107,51.87244790815016,55.07354771826767,18.987983453183677,54.694221967851625,1,7.691522692246176,2,3249013.1046824073,45.64442878998895,76.76854020116507,0,22.01593296432594
111188,California State University Maritime Academy,Vallejo,1182.553191598,94590-8181,CA,8,38.069061,-122.231551,8.527906324281318,8.527906324281318,99.30300434908602,34.56251446851257,29.623241080834703,27.311979059150648,47.36549945585455,58.22869979886607,31.394359210844762,69.87471255427329,57.33624337851645,0,47.28922129580114,1,3421154.4948844663,43.205945249212846,77.19479448504855,0,33.717589012867364
111948,Chapman University,Orange,1288,92866,CA,8,33.79302,-117.852518,15.031833081508955,24.47047032658808,89.36349689982777,97.23130051790733,28.800492877628137,25.769437236162396,29.200297480363677,55.730699730518246,52.50335120614912,43.936205358866225,70.8181550238195,1,32.08209288592986,1,3214545.166613965,46.1380250653221,97.66990291262135,0,29.52046326344017
112075,Concordia University-Irvine,Irvine,1142,92612-3203,CA,8,33.653665,-117.812305,8.914521819240846,15.614853262418345,91.09037974426137,29.167895036154345,26.878677719230932,26.761246842687793,41.283212339051616,67.35101101878466,52.37388430329857,34.56485791240343,48.473042356866706,1,41.390913557783485,1,3217357.90676986,46.09767863213152,69.32038834951456,0,28.55641314758602
112084,San Diego Christian College,Spring Valley,1055,91977,CA,8,32.750035,-116.993906,9.09958528525307,13.591734681000531,97.67610591684894,33.43842253257851,29.126167997678156,26.4524987116513,41.28719406910768,59.30009824793291,51.82626344139831,32.167901353254564,31.752954881508103,1,39.42874762771724,2,3189808.3695020434,46.49336477909918,52.42718446601942,0,27.50182725053139
112260,Claremont McKenna College,Claremont,1446,91711-6400,CA,8,34.102154,-117.711188,53.99230062920588,58.94610838309803,99.79309243989263,34.9653201492081,29.872721866110528,25.88991196941516,50.107518548112424,81.30342853989752,52.928014083021,60.1731219569069,87.64254814151154,1,2.01931619654363,2,3188956.417067389,46.505619265316405,45.11278195488722,0,32.16775900455281
112394,University of Silicon Valley,San Jose,1041.95033219,95134,CA,8,37.414049,-121.94087,14.825127225691482,14.825127225691482,99.66123291162444,34.75898997173269,29.751341475818563,29.718302349057787,40.724984968609704,20.377541809200576,43.0279759184156,42.61657190460934,47.37316689327664,1,36.817478384806314,1,3418598.7917806506,43.24182342158323,49.893268386407755,0,28.29481576859192
113698,Dominican University of California,San Rafael,1126,94901-2298,CA,8,37.981279,-122.512051,7.836465473916512,15.202345038302077,96.03779928564661,32.44742261833099,28.604028879816457,29.870138226494085,21.9694297906528,60.93360265265539,51.91305454081097,46.789077902770565,72.54226091801756,1,77.51276315203235,1,3447535.867256923,42.83616322816779,66.2135922330097,0,36.379941117325544
114813,Fresno Pacific University,Fresno,1053,93702-4709,CA,8,36.726831,-119.735199,3.2513867472134477,9.175603372078296,94.85497654997579,31.845844392751772,28.228552793000404,43.46026187861073,51.84967223833624,88.65209343286767,49.79736037061976,35.931467570236315,40.66878931744028,1,74.16704864348121,1,3256624.2730088523,45.53567351393897,52.03883495145631,0,35.75118443982953
115409,Harvey Mudd College,Claremont,1531,91711,CA,8,34.106515,-117.709837,49.81787670454326,58.79494447526921,99.82715754208793,34.93064211188151,29.863772058975062,26.406900254747555,26.62537895236838,70.82451026415032,53.269529663225796,80.2516793839991,93.03490366795609,1,3.787101743702145,2,3188651.972096614,46.509998666514626,13.15789473684211,0,34.99868463326655
115728,Holy Names University,Oakland,849,94619-1699,CA,8,37.802276,-122.187804,6.924342975073111,6.5961689737685285,94.69151492953307,31.4795379299174,28.154064076410428,47.06597880985795,51.47939786838224,75.47744344709861,60.243765970321626,45.02542237624902,48.48229560555018,1,51.92046171844862,1,3426245.358067393,43.134506474938,12.427184466019417,0,33.35690737388367
115755,California State Polytechnic University-Humboldt,Arcata,1074,95521-8299,CA,8,40.877481,-124.078293,5.222477436973338,11.125523167391297,90.81692780255256,98.72580813961801,29.474430050309678,28.50912221019272,72.30463356990248,84.87322578744079,57.18088194119345,27.946711436759955,45.40869385681333,0,61.399986936178536,3,3493780.0849669026,42.19048531150077,56.116504854368934,0,31.219420206946495
117104,Life Pacific University,San Dimas,1002,91773-3298,CA,8,34.098705,-117.829388,1.1048568306689055,6.3108529585671045,97.44644352786953,33.24960371920183,28.965946471237682,25.559144397034547,59.857266806436606,60.83484027796481,50.64107158791187,27.5817727805622,34.40674830929249,1,92.11085580583526,2,3199134.224893967,46.35929279264409,42.13592233009709,0,34.8434605967443
117140,University of La Verne,La Verne,1120,91750-4401,CA,8,34.100855,-117.773262,14.266222951576442,19.451286272155656,93.91416507851451,96.05986977093282,28.113375745734114,46.397292507525265,43.68542124739807,78.16425288924287,54.223302886526014,41.12266585116136,48.74439185211538,1,29.30949688028468,2,3194279.0660903254,46.42907610276719,65.04854368932038,0,30.668090897309128
117168,Laguna College of Art and Design,Laguna Beach,1154.4478246939998,92651,CA,8,33.561448,-117.772564,4.686636820913158,4.686636820913158,98.6920279823364,34.12107222032217,29.419343590047834,26.871597732632345,41.49741239038286,41.91766884455428,44.85975065779846,27.74562991411021,62.4433445047164,1,67.60339842343002,3,3218137.94213532,46.08649176998156,71.7374416881553,0,30.58871015170112
117627,La Sierra University,Riverside,1022,92505-8247,CA,8,33.910704,-117.500054,14.713490793935852,16.98422807399969,96.20414339953763,32.590144464530304,28.63521760039672,51.7543500513535,49.626725098306416,67.029734171293,52.72943613171988,38.801921814223356,34.58738113815787,1,25.575778657781832,1,3179438.1840205714,46.64260354004546,46.019417475728154,0,29.787920562391363
117751,The Master's University and Seminary,Santa Clarita,1143,91321-1200,CA,8,34.381755,-118.518193,5.308485339450281,12.93063499511471,94.36620064274425,31.31533513985024,28.028728580126145,11.204675671344079,43.75460382857742,68.38537678647388,43.42963324256496,30.29928315248839,54.767209104519104,1,61.53169627305249,2,3245376.743434328,45.696419073698394,69.51456310679612,0,29.235582660771136
117946,Loyola Marymount University,Los Angeles,1321,90045-2659,CA,8,33.97085,-118.415744,17.12386040172863,26.718510253656817,89.81377303799871,96.54727044141502,28.468792980377593,32.12615251361697,30.952974559871897,58.32496880603833,56.15959132200477,46.25558736846815,69.56472977592021,1,25.61378226031475,1,3254469.494855605,45.56645412592998,92.10526315789474,0,29.796717090135505
118693,Menlo College,Atherton,1042,94027-4301,CA,8,37.453475,-122.190797,21.285291166246516,25.440110778898504,99.71927229166977,34.79884515085635,29.747426458056655,30.084972819669815,51.970788525247215,67.56271660872764,52.61452520790273,40.138552973017696,53.63965723573033,1,24.069072366348045,2,3438266.6596259996,42.96596882850836,49.90291262135922,0,28.285159675314446
118888,Mills College at Northeastern University,Oakland,1158,94613,CA,8,37.781425,-122.182294,4.101594993946718,12.268668853444115,93.8755754688531,30.924202606451647,27.830685322028337,37.95499044158099,49.34237546627199,86.79639942952019,66.3409617084286,42.56567262278165,57.64938982205518,1,74.85937371636746,1,3426476.2157707578,43.13126782898898,72.42718446601941,0,36.72316728388987
119173,Mount Saint Mary's University,Los Angeles,1031,90049-1599,CA,8,34.085315,-118.482879,4.061960569130382,9.080846696878215,96.71733650337731,33.04458190797691,28.881538398464222,52.12205566749799,38.933254058053635,68.04826309923696,36.47274842822689,55.30442438877036,45.72132036745568,1,72.10923262335172,1,3255161.0025304877,45.556575306783195,47.76699029126213,0,38.647456461848996
120184,Notre Dame de Namur University,Belmont,983,94002-1908,CA,8,37.517111,-122.284794,1.341404407196979,5.900311558845823,93.51911576294165,30.7017068858951,27.71722364204133,38.03866541504749,45.932254738237766,67.38033113708943,55.956894445450175,50.02443197265477,37.01331521721604,1,93.87225889955668,2,3443993.298174053,42.88575801321187,38.44660194174757,0,39.2953931588767
120254,Occidental College,Los Angeles,1368,90041-3392,CA,8,34.127124,-118.210908,37.11272120254782,46.73988106795798,99.80557179749495,35.04508743207496,29.890316308338974,31.264454144477753,33.19509351984938,83.83265229426118,57.750341389348115,44.239741985818924,80.84003061550118,1,17.10538615810657,1,3230266.9639536035,45.91266099587088,74.43609022556392,0,31.171817129326474
120403,Otis College of Art and Design,Los Angeles,1158,90045-3505,CA,8,33.956607,-118.416615,2.909834050777921,11.263633348226053,99.06265842082256,34.4467475413588,29.618057396314637,25.18654301777024,22.44887198299688,42.20453035598973,52.407031320121575,37.964757384214785,59.73934817434515,1,89.85289551726142,1,3255168.815204207,45.55646369969378,72.42718446601941,0,36.03908910980383
120537,Hope International University,Fullerton,1010,92831-3199,CA,8,33.87616,-117.88573,21.47340300195134,21.58646548248085,93.61392512487008,30.733528891281335,27.714049807837362,28.92539124247096,54.3883741240038,82.00400537041222,59.05357933457363,27.085166096749685,40.45178154746457,1,11.509212688718403,2,3213677.0471318,46.150479917005434,43.689320388349515,0,24.022804381687664
120865,Pacific Union College,Angwin,1080,94508-9707,CA,8,38.570585,-122.440308,15.593793182576718,19.55012189363347,99.6832590733477,34.82612961228597,29.7654056021437,35.78621597020464,46.72916141755817,79.24610756045851,53.8773424963441,42.522823621477066,42.31902417115095,1,27.855365062862536,3,3422708.853166366,43.18412921883267,57.28155339805825,0,29.203800125592327
120883,University of the Pacific,Stockton,1240,95211-0197,CA,8,37.981424,-121.312301,16.890148459056114,25.59376330402387,93.23328808847943,30.867937635874366,27.724510485494296,34.30662988622071,45.276704320767614,64.29960889692549,54.09485179518346,55.06488515097957,65.73760622515871,1,43.46171502850821,1,3346870.3442959,44.25277514362113,88.3495145631068,0,34.143502288810716
121150,Pepperdine University,Malibu,1330,90263,CA,8,34.037786,-118.707077,20.655896736797562,29.505176146588123,91.52343442442898,29.714736419912413,27.138021169025453,25.209328097558696,29.965801998475502,58.6872746747334,49.31089695577576,48.77091115531558,76.79626260441779,1,15.840784990068762,2,3276256.6635436737,45.25554900740252,88.7218045112782,0,27.899390286491048
121257,Pitzer College,Claremont,1336.338123512,91711-6101,CA,8,34.104107,-117.706675,41.44661510223017,41.44661510223017,99.78399040015665,34.91218373757745,29.829347279227353,30.729823619202204,42.05609316594725,87.47672894603527,59.32089520716876,39.25482124748667,80.15732648856167,1,3.3539612727729695,2,3188488.5353113967,46.512349740670686,86.33905131127818,0,27.794606523805502
121309,Point Loma Nazarene University,San Diego,1240,92106-2899,CA,8,32.718391,-117.250265,7.114561134207098,16.77033051927348,94.93315628858232,31.922924182198983,28.251611171550927,26.48945176669729,35.827266057943966,60.629370622893674,51.95941247153176,40.11879387997329,62.234105817943615,1,50.43694283300552,1,3213011.238091043,46.16003299993135,88.3495145631068,0,31.14407726921802
121345,Pomona College,Claremont,1468,91711-6319,CA,8,34.099027,-117.714556,70.32287645941082,74.60463378454406,99.84874763393559,35.040307004464914,29.916524441831914,32.165710111238326,69.60053913627418,86.03982321452985,49.01933969329258,47.576664927732416,87.55997672411512,1,1.5388801786421635,2,3189378.293611567,46.499550855922486,36.8421052631579,0,33.08366228293415
121691,University of Redlands,Redlands,1189,92373-0999,CA,8,34.064218,-117.163218,8.214051490541703,16.798783815649657,94.49464943505592,31.620387809688836,28.125501769401716,33.48441846947787,33.054423421372356,75.65459055364876,55.34679630924386,45.61474360953961,64.83739763995558,1,58.45209582923547,1,3144127.84468933,47.151968475454666,78.44660194174757,0,34.47330436741507
122409,San Diego State University,San Diego,1213,92182-0001,CA,8,32.77525,-117.071228,26.22733359124974,32.18156338008893,35.02072365547217,33.20956376411861,98.73877364668174,34.35461231680686,72.8064147760804,69.16830237748509,54.299157615045154,41.822616069078045,59.41836863184033,0,15.04584141427625,1,3195151.8550310466,46.416528881852486,83.10679611650485,0,37.12122212693322
122436,University of San Diego,San Diego,1285,92110-2492,CA,8,32.770816,-117.192073,15.83655946736842,25.13103176022324,91.80397627493821,96.11339106347936,28.17125168106935,27.026488034371734,33.81468069452838,60.73105259401597,53.03103514873563,51.5105938264382,74.27399134624174,1,31.406282074617177,1,3205590.450087705,46.266552056060675,97.08737864077669,0,30.912724421142823
122454,San Francisco Art Institute,San Francisco,1041.017334414,94133-2299,CA,8,37.803575,-122.417,1.9499815683146036,1.9499815683146036,95.58806516619522,32.0156869351815,28.407444573073033,29.126477245027687,28.935101301539127,57.844728025503294,47.26426374053926,22.636657555073402,29.928307563305783,1,90.66752202373291,1,3445439.886795195,42.86550398261049,49.71210376970875,0,32.636449023722264
122597,San Francisco State University,San Francisco,1054,94132,CA,8,37.721224,-122.476799,11.134628536470068,16.24925984069845,43.01854024856675,33.49365415599245,98.94488684478034,40.58987339240868,74.1256378442357,69.91252315790412,57.54150623271512,46.36706336642426,49.251606708928456,0,54.26127915916456,1,3453213.8127705758,42.75671312665334,52.23300970873786,0,42.63168472565627
122612,University of San Francisco,San Francisco,1237,94117-1080,CA,8,37.776618,-122.450477,14.370682251692223,23.248575090744488,88.63240988695786,95.96200893646827,28.14869137617201,34.869636570354615,34.56330336195196,75.32910383237636,55.820277575937325,57.03423553512238,70.10747620069246,1,44.79069492674587,1,3449148.8763503428,42.81358787225894,87.76699029126213,0,34.43604371182342
122728,William Jessup University,Rocklin,1084,95765-3707,CA,8,38.819728,-121.292312,9.780527970693091,14.786685942697035,95.83941546909678,32.29119851948677,28.493900805749227,26.548977262504522,51.34960075173411,77.08911484087393,49.52188929228886,34.75474642594103,47.673454733900165,1,37.570942944424516,3,3319185.563723502,44.645031584294095,58.05825242718446,0,28.12226846005288
122755,San Jose State University,San Jose,1143,95192-0001,CA,8,37.336569,-121.880621,11.047494484680923,17.214737601250324,38.68740694574446,32.26661675415149,98.29248115585007,39.48893611389259,74.93634029298502,72.926969652027,53.17506065604491,53.244314989674585,57.024739175617725,0,33.260169987562136,1,3416194.0263713645,43.27559160007029,69.51456310679612,0,40.29124376814443
122931,Santa Clara University,Santa Clara,1366,95053,CA,8,37.348362,-121.93784,20.616056530403906,31.598762362311703,92.68135716006533,96.16469988311515,28.228014650801274,29.790388351208634,31.65716534831382,76.07469548956767,50.64751572033717,66.59303788086923,81.92251660211635,1,28.322727089565845,1,3420602.226507001,43.213697425328576,75.18796992481202,0,33.6505335165798
123165,Scripps College,Claremont,1409,91711-3905,CA,8,34.104147,-117.711294,31.495528520471687,39.931411303600164,99.51688637016602,34.73092615616944,29.739184555830445,32.53997178956587,41.43709711181491,83.22478520292744,53.15954692233477,40.9456512034704,74.81698872930853,1,8.382608010996165,2,3188878.6481284862,46.50673794814662,59.02255639097745,0,28.622893411271846
123457,Simpson University,Redding,1078,96003-8606,CA,8,40.61334,-122.332981,12.614934681926481,16.703460798447612,97.57291270986815,33.37713824515818,29.058900893783232,23.27921889529471,51.39168504042264,75.68584535118858,51.57831890598436,29.442197168261323,37.73800120680039,1,28.412657146575,1,3356857.812500511,44.111548045142534,56.89320388349515,0,25.533968801855323
123554,Saint Mary's College of California,Moraga,1174,94575,CA,8,37.840731,-122.109031,7.554223753318854,15.791337603398219,95.54984546799388,32.309256507370755,28.483907262922347,33.891252323047695,30.35772256764968,69.07328047855525,57.8760652456922,45.644835804196504,70.54151411219664,1,61.98643249893499,2,3418357.9421260436,43.2452050881229,75.53398058252426,0,34.56390730448607
123572,Sonoma State University,Rohnert Park,1072,94928-3609,CA,8,38.340274,-122.677066,5.342373838731271,11.912307087814217,86.55810092047969,98.67889949859244,29.492525286315978,31.86210352382199,69.01875292790585,65.6412311429954,56.24876805033472,40.373928156004105,53.994259276409565,0,81.63783611260845,2,3449748.570268054,42.805195669516834,55.728155339805824,0,36.6746171622959
123651,Vanguard University of Southern California,Costa Mesa,1039,92626,CA,8,33.662686,-117.900911,16.30639650345256,18.45826102305696,97.4500737263074,33.42258101331737,29.01567203539209,34.58535985389821,53.634029722637884,84.45962653666969,53.448474280117196,32.19924006936209,53.08382671102012,1,19.417041624114727,1,3224467.6249884707,45.995748476333006,49.32038834951456,0,26.638931538305126
123961,University of Southern California,Los Angeles,1445,90089,CA,8,34.021281,-118.284169,73.92168354653116,79.178225418079,49.64220860587708,29.014422755620874,96.88731659526283,30.421296588495352,39.363702646581665,77.46889721514128,52.37256285198775,62.40970334249481,80.16293750609657,1,3.219459322948411,1,3241096.659812922,45.75763827001601,45.48872180451128,0,42.76985838745438
124292,Thomas Aquinas College,Santa Paula,1307,93060,CA,8,34.429009,-119.087141,8.504666996994258,25.923175629350354,99.76241335007302,34.80226620108466,29.776513934240068,6.729621016791414,46.00519108123594,83.90008792338197,40.6211983358382,25.984667884572794,91.7005046298269,1,62.78251710274916,3,3291639.8531102263,45.036457908826414,97.36842105263158,0,30.756959727596513
125727,Westmont College,Santa Barbara,1249,93108-1089,CA,8,34.450151,-119.662517,14.505154814943708,28.069647049156966,99.76241335007302,34.91637819781468,29.81688860690508,19.941904613148374,35.435548683343136,72.53476025026957,49.11981811924172,37.228712870258235,67.00271378126833,1,42.15250740933682,2,3339560.5956547013,44.356232905472105,90.09708737864078,0,30.097853163649063
125763,Whittier College,Whittier,1126,90601,CA,8,33.978773,-118.032299,9.11220593116355,15.942519452220441,98.78362052788704,34.32402745471829,29.511916214935347,44.06663858142207,45.706618216890135,76.19095525515674,56.776785455593355,34.03540937233261,61.335966252545106,1,60.177445404916405,2,3221591.0387885105,46.03698020723705,66.2135922330097,0,34.37721057001717
125897,Woodbury University,Burbank,1056,91504-1052,CA,8,34.208011,-118.341147,8.605725839920154,13.005555833896247,98.33776063869666,33.952434662812756,29.360671249407865,28.8658739113081,36.67564990941781,62.224342450604006,54.45940427025763,43.07340842075921,53.327358136524545,1,46.19025113740115,1,3237813.6939069666,45.80461403180237,52.62135922330097,0,30.74601552643525
126562,University of Colorado Denver/Anschutz Medical Campus,Denver,1132,80217-3364,CO,7,39.745149,-104.837722,15.94712115328388,24.22707651329921,71.68977599444824,95.27066441454662,28.005771326262256,27.816348139913643,70.83372667556687,59.184664537232564,57.756825162530426,42.513040979347444,38.743997412271874,0,43.64682900039357,1,1913200.9387738062,66.07681678348716,67.37864077669903,0,33.909622326990174
126580,University of Colorado Colorado Springs,Colorado Springs,1123,80918,CO,7,38.892735,-104.800296,3.388268227830422,15.27823608400197,79.77337295455371,97.89409238585871,29.2401102430521,23.56301663977223,71.97940865502326,62.16234938345182,54.131768167047554,29.817226821039263,35.378488669945696,0,84.23571792538797,1,1927463.3171076886,65.84453389682207,65.63106796116504,0,37.243369074823605
126614,University of Colorado Boulder,Boulder,1281,80309-0017,CO,7,40.008781,-105.270823,18.80109409012445,29.825933064187282,34.99346594561134,32.96070842106167,98.71252949243234,22.72280971822479,62.87782821639322,64.91627422860601,48.71309122764368,38.60266447656937,67.02612697028576,0,68.54244738259506,1,1945230.673114508,65.55559407009842,96.31067961165049,0,45.804915396272186
126678,Colorado College,Colorado Springs,1367.87510679,80903,CO,7,38.84886,-104.822697,53.77455075128002,53.77455075128002,99.57252423474311,34.90750304442827,29.807082555274178,23.935733729001235,47.13836863739268,86.32716102347169,55.120200874617495,33.60569210929077,88.52681481289922,1,3.99045514475325,1,1930377.7200568328,65.79710626854471,74.48304256015037,0,30.0437645722661
126775,Colorado School of Mines,Golden,1383,80401,CO,7,39.751443,-105.223364,31.221054462176554,42.64418553612457,96.39616773360866,33.127007469850525,28.808384004118732,20.791172179460162,43.10326159407034,54.14605476610409,40.83263988230323,65.14101815135811,76.2192641343447,0,27.608322528833455,2,1945663.4939386921,65.54856126972624,68.796992481203,0,35.757372622186686
126818,Colorado State University-Fort Collins,Fort Collins,1197,80523-0100,CO,7,40.574805,-105.080732,4.164248401800129,13.380477904754436,44.44853245168627,32.377418198897004,98.47007587797629,22.3911533191185,62.941293423944146,59.47225531706216,50.873794757382214,34.09440581182821,61.94740355483325,0,72.1884575681067,1,1920909.1882689735,65.9512392339417,80,0,43.6937639244472
127060,University of Denver,Denver,1300,80208,CO,7,39.678005,-104.963259,26.3777307909924,36.300861993615364,89.3956425895396,94.59011212605832,27.432635454669715,24.018804800232637,41.210849144508096,77.9988510735502,53.4108406310216,42.91634684567889,70.07900706482171,1,35.24412338675617,1,1925023.563556956,65.88424709423441,100,0,33.71874998019407
127185,Fort Lewis College,Durango,1094,81301-3999,CO,7,37.275939,-107.867422,4.161091769892768,11.269453379742403,99.38874690745254,34.86298629382808,29.678768980653164,21.183057860829724,73.49194036810954,63.9017249846725,55.46751263499768,20.829129881872955,33.57934064114209,0,83.79139655716828,3,2232436.1912086317,60.95059540662251,60,0,34.645734139875344
127556,Colorado Mesa University,Grand Junction,1022,81501-3122,CO,7,39.080643,-108.553275,4.627758526807043,9.541020208910174,88.43617656890922,99.41919686757356,29.88284131384621,21.799120714642022,73.23436569999151,55.44374658334178,53.06754275210652,24.474279804699233,30.917939445634477,0,67.28160620972928,1,2240885.0119638955,60.81700091562595,46.019417475728154,0,32.13160749003001
127653,Naropa University,Boulder,1022.037299394,80302-6697,CO,7,40.014235,-105.266987,1.3129552529121074,1.3129552529121074,91.31140424712379,29.18291196726591,26.988377202099407,8.499562756684492,38.171605398174314,68.28491810468435,55.62207855243685,11.495885747547476,27.330130109002862,1,97.13233017956979,1,1944817.407158781,65.5623093902487,46.026660076504854,0,32.47110553936945
127741,University of Northern Colorado,Greeley,1099,80639,CO,7,40.410855,-104.692777,6.358121270644075,13.533025331065858,83.14954426158167,96.98603210075646,28.722966349116053,24.957998520828273,72.27362642461485,63.20645721229993,53.69503395213651,28.140649970774458,42.353038074008246,0,83.50150995339122,1,1890478.4488811935,66.44751438649276,60.970873786407765,0,36.9744202794502
127918,Regis University,Denver,1160,80221-1099,CO,7,39.788175,-105.030756,9.31898759898341,16.379276170390536,92.17865340530136,30.192331824695923,27.370857093780536,26.995541134008338,46.77662584577856,70.53093575168246,54.924586774366674,45.232697696151874,47.46888289367095,1,39.61695969434554,1,1928741.0332771973,65.8237393750039,72.81553398058253,0,32.441816457157444
128106,Colorado State University Pueblo,Pueblo,1040,81001-4901,CO,7,38.30859,-104.579033,1.2470589543759951,7.3759221239028,93.80153707452219,31.234932791178313,27.89790574047598,33.03915445557401,74.31723993058499,79.66374504629206,53.944385367204134,27.36503080963512,27.835989352465994,0,91.25417912387954,1,1923140.2940416753,65.91490820020373,49.51456310679612,0,38.265305932182855
128391,Western Colorado University,Gunnison,1095,81231,CO,7,38.549936,-106.919132,8.346271763467067,15.338394510043642,96.98655963470149,33.13377677059889,28.880146636394656,19.31149235432803,71.01112006113976,48.85810335814615,49.51903809071838,27.170375945044917,39.177609122426084,0,80.3958492228572,3,2115376.732203246,62.812575805875206,60.19417475728155,0,35.10583625430979
128498,Albertus Magnus College,New Haven,931,06511-1189,CT,1,41.332519,-72.923848,16.830197906087957,17.90789787103788,96.20929293860713,32.5129259500204,28.596563132889088,26.45234278131453,38.511630627890746,82.2389568661392,48.108560316989674,37.15827398014972,47.59667661394636,1,37.045006564413,1,800461.057048187,85.1393166502215,28.349514563106794,0,33.24595408096204
128744,University of Bridgeport,Bridgeport,997,06604-5620,CT,1,41.164741,-73.190166,14.04311445212375,16.61726012574855,93.99369996298724,31.320108515304923,27.923111301394464,34.4308194016131,49.6936664960505,72.94045367271175,56.54553264459948,32.653683101760635,37.42841145445713,1,36.105279827676476,1,776825.402093555,85.56435413638752,41.165048543689316,0,33.16873483961369
128771,Central Connecticut State University,New Britain,1076,06050,CT,1,41.692502,-72.765991,8.611448212202397,13.795527361512473,82.92905179896593,97.71424878606419,29.128462653681176,26.480289919004253,66.08684921565053,64.42958946426249,52.511330375554664,30.272589104271624,45.069381958713606,0,48.21911243988385,2,817841.2011755359,84.82730567062093,56.50485436893204,0,33.80922420631469
128902,Connecticut College,New London,1380,06320-4196,CT,1,41.379833,-72.107321,28.409993885958393,38.44457762131206,99.80557179749495,35.03020903436394,29.88505209024994,24.623485279246246,33.378232540935265,78.43271225403079,56.210823791422825,44.513174128798,86.98833058600592,1,17.466322705245915,1,868891.1169009681,83.91346825045008,69.92481203007519,0,33.90750780447286
129020,University of Connecticut,Storrs,1253,06269,CT,1,41.809098,-72.249948,35.583191992901334,43.386010322947755,55.373229766243725,31.63882608341468,98.12760964991136,25.111896344439906,50.92440949732126,66.3507757647214,53.18051831618177,47.145441723789865,74.01378004267603,0,27.19572094297618,2,862029.3570414023,84.0360723901403,90.87378640776699,0,44.186340811751585
129215,Eastern Connecticut State University,Willimantic,1148.610484148,06226,CT,1,41.721673,-72.218753,9.405679329266592,9.405679329266592,99.07540925075101,34.88234894316308,29.69056005807699,24.487696792594264,60.08902276691937,62.39145019991585,56.15228290761219,25.93634576668423,51.17137844012863,0,46.27922468478189,3,863369.0972007852,84.01212871644528,70.60397750446603,0,32.117966349790734
129242,Fairfield University,Fairfield,1289.759936802,06824-5195,CT,1,41.157673,-73.255903,12.633730842080361,12.633730842080361,96.57869408059662,33.16358291162093,28.874611572800124,19.541568972675748,18.8438168430357,69.55072818686318,53.44695174007887,58.00080399544122,79.85063267382701,1,39.628737627902936,2,771276.0431154384,85.66426906645496,98.0116382139806,0,35.524360735407924
129525,University of Hartford,West Hartford,1160,06117-1599,CT,1,41.798591,-72.715213,7.574615570861946,15.103012193913425,95.7334859079244,32.70763716193821,28.66643987526361,24.568034784067322,39.818177458612126,64.76980787914924,54.756869555451345,34.828011702253335,52.59018210296037,1,53.71234376335021,1,823626.3201407079,84.72355078726869,72.81553398058253,0,34.982587597271255
129774,Mitchell College,New London,1059.519734364,06320,CT,1,41.328013,-72.09523,5.453263532499723,5.453263532499723,99.67614862228521,34.74004602674055,29.69875655889972,27.966484748069703,51.650855139963454,60.785646292256146,58.06360481951468,14.931332192853787,46.9925097617814,1,70.59648611910865,1,869486.3737459352,83.90283568311487,53.304802789126214,0,34.21293197702253
129941,University of New Haven,West Haven,1129,06516-1916,CT,1,41.291314,-72.961472,5.4171754081175845,13.069594279568538,95.61154799544988,97.05042664180826,28.584417582742486,12.52463957935159,34.52065468696705,54.75378673211603,51.16441174326635,29.07002213695814,58.95663074856333,1,72.1884575681067,2,796949.3715568259,85.20241395028079,66.79611650485437,0,35.38651994374109
130183,Post University,Waterbury,958.827664562,06723,CT,1,41.535549,-73.081497,16.50881644944499,16.50881644944499,86.28752233702343,98.78350431426435,29.58313778881989,27.071489304292815,81.17819735632035,99.32193581285576,53.116860832066365,25.699495987366795,11.976162475532382,1,31.50089054056953,2,789634.6786466188,85.33390232479425,33.75294457514563,0,31.170146669512047
130226,Quinnipiac University,Hamden,1190,06518,CT,1,41.418915,-72.894117,8.723379549572524,16.91026720988211,87.863466518135,96.95763145876629,28.66909201568992,21.92470966303895,27.054286663568618,61.71868194635804,55.171348777172824,48.90074038341363,73.63854679146934,1,55.242444680696146,2,803801.2289672286,85.07931822777576,78.64077669902912,0,37.347503020507546
130253,Sacred Heart University,Fairfield,1213.27891985,06825-1000,CT,1,41.220893,-73.243332,9.719309364452645,9.719309364452645,91.6853260242562,96.36306938985894,28.313782134660812,21.773171673567855,27.13621131024689,54.38770321003884,56.08548583455615,46.385063900806635,63.60390516628131,1,39.79381003138663,2,772825.1903662521,85.63637238223475,83.1609553106796,0,33.35599065289609
130314,University of Saint Joseph,West Hartford,1120,06117,CT,1,41.781041,-72.72965,6.691355283456422,13.284930092946464,90.17326384616705,28.491923281696778,26.644820452776404,27.308073207403663,34.6387458970173,59.61522353116342,61.80019211623873,24.870892427030217,48.803801327760546,1,55.076002534775,2,822163.7381790695,84.74977714634672,65.04854368932038,0,33.49785616982811
130493,Southern Connecticut State University,New Haven,1027,06515-1355,CT,1,41.333225,-72.947897,10.213949651157293,14.043237380822665,87.3878745192885,97.7339682140896,29.081654403960595,25.94006955276506,65.36559228726271,49.89133244923872,57.43005687722916,29.35564111262229,47.753483862851155,0,46.91721098030098,1,798464.7505871964,85.17518363928828,46.99029126213592,0,33.33597311690244
130590,Trinity College,Hartford,1386,06106-3100,CT,1,41.747451,-72.690882,55.04084385176365,64.44342637360066,99.44665531893965,34.83928617455455,29.782521972854198,26.06144752151213,31.592336054544933,81.16359881529492,53.55395047123798,42.63502462026016,84.62820437906622,1,14.299292724372577,1,824836.8156672284,84.70184715359312,67.66917293233084,0,36.27165474913331
130697,Wesleyan University,Middletown,1376.058381408,06459,CT,1,41.554665,-72.657146,63.47629394931819,63.47629394931819,98.83035243026686,34.536573386199855,29.627199652915138,26.91230189771071,45.47800174298173,84.69618025970813,55.55033450998751,44.07802939855554,89.10143295045253,1,5.015774154614051,1,825004.7641985378,84.69883608641429,71.40662353082705,0,35.32276027378325
130776,Western Connecticut State University,Danbury,1105.373983748,06810-6826,CT,1,41.400365,-73.444264,5.423809023341347,5.423809023341347,98.04045348014952,34.233055867557965,29.383630299683126,27.686704574681897,62.662255381605306,49.784368899826184,54.59524647563612,31.418411478140506,45.24139631023233,0,65.03533497985438,1,757894.7268585874,85.9053864542188,62.208540533592235,0,35.80654151856696
130794,Yale University,New Haven,1517,06520,CT,1,41.311158,-72.926688,87.55682960670387,90.95911451006711,88.34641591582175,94.30974052449712,27.36528470170849,31.82387594475481,60.36072829676985,84.55417037501313,50.786500288082124,64.95453102659256,90.70193492628644,1,1.214997168112942,1,800026.9161940527,85.147116209446,18.421052631578945,0,41.47888236669589
130934,Delaware State University,Dover,938,19901,DE,2,39.187173,-75.54053,13.65204488770033,13.89041704417965,98.33031429994958,34.27416383596621,29.402760440755973,50.310540181166104,67.08158398422314,51.104515341946126,55.353623407895185,27.537934308241827,44.29636254967364,0,27.58860575477169,1,595717.0029191278,88.84900087427083,29.70873786407767,0,33.093976744069494
130943,University of Delaware,Newark,1267,19716,DE,2,39.679577,-75.752822,25.530322848190934,35.16787294088064,56.7352945900016,32.92366992788669,98.77966222889906,22.42575598094635,55.05287154965913,71.1577350295497,54.406642270469334,42.717493202329905,77.070203582073475,0,47.122278444229224,2,566390.1047461414,89.3855097054003,93.59223300970874,0,46.45375871619504
130989,Goldey-Beacom College,Wilmington,1083.510397692,19808,DE,2,39.741501,-75.689624,11.117188454885225,11.117188454885225,91.9471217252415,29.570314079355388,27.05726647205448,21.99303206127011,71.88760631554676,84.59747978587481,54.38800461550186,30.155098632189915,39.07717537855904,1,31.7327445822772,2,570633.766325849,89.30779600618746,57.96318401786407,0,30.901648861782697
131159,American University,Washington,1320,20016-8001,DC,2,38.936005,-77.088875,34.48645330007865,42.37622284593801,84.96602760342977,95.28159125794802,27.857996319211225,26.322951237216923,32.77709969375604,69.29373885948442,52.862936305356,47.97021193981907,75.08645533406579,1,12.89519849213908,1,476455.980700381,91.03881168265141,92.4812030075188,0,34.489770445369636
131283,The Catholic University of America,Washington,1229.336077288,20064,DC,2,38.933651,-76.997909,22.93668258084352,22.93668258084352,93.19785206110693,30.838187372630237,27.781577648794084,23.751455752244958,26.93756351195837,59.72074975093469,52.11276388483962,46.87971857922071,75.01490839148681,1,71.88763246736578,1,483919.05820789887,90.90115303096489,86.27884995883497,0,41.1832108281278
131450,Gallaudet University,Washington,955,20002-3695,DC,2,38.907371,-76.993675,19.41356758904532,19.48515167485643,95.76518204691119,32.26707577317579,28.549192354621983,26.783437755432807,70.36707903517228,86.1718635724683,63.04756937411955,17.3255206053586,44.180395300034036,1,35.903053499474595,1,485295.5385054244,90.8757725684877,33.009708737864074,0,31.78003292128787
131469,George Washington University,Washington,1380,20052,DC,2,38.89923,-77.048363,42.111071165250316,52.435669079096265,69.11416834978154,94.09577929134588,27.47408726334022,25.0205587411943,33.42977430026565,78.04775371865504,52.253681169086775,55.503134646408924,73.15855472443263,1,20.85339972331442,1,481196.2315825484,90.95136669179489,69.92481203007519,0,37.96924172772532
131496,Georgetown University,Washington,1456,20057-0001,DC,2,38.908809,-77.073463,67.52571041575942,74.68320932491667,83.58297576878505,93.52635090980542,26.97254972545388,26.582421358753596,41.40962149056317,83.73668723920095,51.65894717949887,69.34326163013336,87.03853465275327,1,3.8025785222206534,1,478783.8075361585,90.9958652745334,41.35338345864662,0,40.33765984001682
131520,Howard University,Washington,1210,20059,DC,2,38.922392,-77.018966,38.80182546932158,43.68619070638616,91.14433966641494,96.58822787532769,28.470893935969524,63.827580499093045,34.151313035831265,17.7073832010384,55.18080985190683,38.72361607512582,60.47085796941779,1,12.929279985518965,1,482654.11148811097,90.92447946729648,82.52427184466019,0,36.617700341815286
131876,Trinity Washington University,Washington,977.12561651,20017-1094,DC,2,38.927398,-77.004261,3.4365760203775286,3.4365760203775286,96.39232128505726,32.675477851525,28.683748974175092,64.4814853671849,59.98232784093302,84.92607553939614,66.37109353912857,35.134988352591456,26.235668127262958,1,91.11178652207089,1,483648.7668923619,90.90613717627605,37.305944953398054,0,45.531205872243405
132408,The Baptist College of Florida,Graceville,972,32440,FL,5,30.962708,-85.503931,3.505519292612136,7.241093816841438,99.02883821435684,34.325631352212845,29.57190854931954,3.7480704322555343,79.16724503312835,87.58261932520831,48.173758559400056,19.91929581290364,45.81064196309509,1,73.74998259085456,3,1081895.6621546543,80.14266122690276,36.310679611650485,0,33.15465395545483
132471,Barry University,Miami,1024,33161-6695,FL,5,25.878908,-80.198925,2.47219568824165,7.75449658577024,91.8855160821189,29.937158094323905,27.275672475431588,42.86302294375607,57.01505130969809,82.31590404115121,55.61046702897562,41.48526963184838,29.447292277610423,1,84.35554237618739,2,1621740.451493672,70.89044911990241,46.407766990291265,0,40.701591032458474
132657,Lynn University,Boca Raton,1086,33431-5598,FL,5,26.385985,-80.122806,7.4643127317352604,13.229872898619204,95.38399981427145,32.07040811725814,28.300423483691592,28.901823981974324,46.59522984221131,44.569734409588925,52.1684363556232,27.85693922914983,35.366797983006734,1,52.47380944643879,1,1566574.68159507,71.81587514397424,58.44660194174757,0,31.965355978278392
132879,Johnson University Florida,Kissimmee,1099,34744,FL,5,28.302547,-81.363053,7.970196420065529,13.804763302862986,99.41634334133312,34.551113901917866,29.66576555969337,24.083704262707766,67.60088694993719,65.97242670016487,50.70026647593178,33.020605793380305,37.43750642279067,1,45.87317926315556,2,1342730.6684284413,75.61775272985408,60.970873786407765,0,32.45626610338738
132903,University of Central Florida,Orlando,1261,32816,FL,5,28.602159,-81.200889,18.56619243234544,26.670025474610252,15.323209630481617,33.367317327237004,98.64390230571406,33.878350491176334,74.5891255560158,80.10410296102857,52.857588274055985,35.403746581189786,54.77315634529056,0,21.424494410506874,2,1310539.5540149696,76.17068029687569,92.42718446601941,0,40.044972892636096
133492,Eckerd College,Saint Petersburg,1205,33711-4700,FL,5,27.715798,-82.687043,8.654010824759107,17.072067145673316,99.74084064724406,34.990585180250385,29.82920430802428,19.903068350283704,34.84694495754661,64.39192030236735,52.122979986814606,26.097316900989764,63.19811006077125,1,48.76568334850205,1,1405416.5877387912,74.54549193653521,81.55339805825243,0,31.582646935820392
133526,Edward Waters University,Jacksonville,931,32209,FL,5,30.34479,-81.684879,15.400995988831857,16.97218103438013,99.50382783493389,34.61820551733732,29.544296511493343,57.01987476161202,78.87298263063144,63.476943957608334,56.47832608171906,24.00620801854997,25.288485531596958,1,34.21767718334307,1,1113986.002774929,79.58046305306182,28.349514563106794,0,33.838804749602744
133553,Embry-Riddle Aeronautical University-Daytona Beach,Daytona Beach,1177.434349492,32114-3900,FL,5,29.189903,-81.048367,8.622539026410148,8.622539026410148,95.1348542462517,98.67332308650279,29.42664004315755,24.93280198656696,50.59352611279664,73.1902740161388,40.001354969763,65.24455417761195,48.40395838970023,1,45.987200794789146,1,1246538.6933203593,77.27459933207986,76.20084456155338,0,36.738658553316384
133650,Florida Agricultural and Mechanical University,Tallahassee,1097,32307,FL,5,30.428504,-84.290226,16.952215972543303,20.403939849032128,87.90868915746185,97.69107064041864,29.0302347811345,62.30400794116579,65.06357649844573,59.74611393305804,56.598428160193905,29.060739082178294,54.55721786507359,0,18.34424939184416,1,1117083.7716718765,79.52627421923492,60.58252427184466,0,33.1115685188326
133669,Florida Atlantic University,Boca Raton,1159,33431-0991,FL,5,26.372421,-80.102978,12.236068783337192,19.245362623805203,47.02812100441778,32.74661860799902,98.60553307695517,37.34500357080698,82.6637038120548,88.22704627435941,55.57584977696108,35.709242121154396,43.25087686201436,0,38.48270851052354,1,1568314.276025304,71.78662314735776,72.62135922330097,0,42.04599012874575
133711,Flagler College,Saint Augustine,1134,32084,FL,5,29.892733,-81.314887,10.435968016697037,16.530204696136302,99.565288560508293,34.910406868581376,29.71275216825717,23.585469079057773,55.018779096420616,61.56260276961542,53.59736627863256,26.40061540452679,44.60358243070462,1,35.444515654309235,2,1166447.82683448,78.66469687420552,67.76699029126213,0,30.266965335783677
133872,AdventHealth University,Orlando,1016,32803,FL,5,28.576142,-81.367687,3.291508862087552,8.16232490827779,96.28012018295519,32.61034323068645,28.708980212385175,39.89059462324074,60.831727662693275,65.66281268989364,51.356152579873196,43.5240598194112,34.226193047460946,1,77.05370218751919,1,1312305.8956415018,76.14030061996735,44.85436893203883,0,40.0761614553592
133881,Florida Institute of Technology,Melbourne,1264,32901-6975,FL,5,28.065815,-80.622893,17.899092797958815,27.73634013920084,93.19405501201172,30.80085216826616,27.685118293197206,22.86685011055031,46.06070475552671,64.70817885441534,37.42824811031854,51.04680217799247,41.312416259316315,1,45.40589374385232,1,1375142.3950279704,75.06260528924075,93.00970873786407,0,35.67944429254682
133951,Florida International University,Miami,1185,33199,FL,5,25.75732,-80.373928,13.167758585326444,20.761538505579647,19.69086235469898,32.91385160962722,98.54302968685631,61.28329049536532,81.67528674211664,86.35883331016103,54.24414775718463,43.909423372276045,47.072931631946396,0,37.60537007669689,2,1633296.8691098257,70.69716392169842,77.66990291262135,0,45.89483391516984
133979,Florida Memorial University,Miami Gardens,1064.538011932,33054-6199,FL,5,25.918278,-80.270753,20.675087107320834,20.675087107320834,98.99378336867437,34.36259627197219,29.510538611820653,64.96487031939961,66.66916758762284,65.69388021457617,55.45018956571474,27.341953438176994,29.289804591638102,1,14.04268400772848,2,1616582.7250323433,70.97677854631995,54.27922561786408,0,31.25407188646651
134079,Florida Southern College,Lakeland,1230,33801-5698,FL,5,28.032443,-81.948203,13.124103450096348,21.09483876406187,97.61020424718612,33.64598374503683,29.12215158757381,23.55234887195244,44.01150130691684,68.6624150931501,54.691020999500466,26.9908830668968,58.37324624758226,1,28.643113934749774,1,1370283.322321695,75.14573104627824,86.40776699029126,0,29.46709446698005
134097,Florida State University,Tallahassee,1289,32306-1037,FL,5,30.443147,-84.295064,34.14426919272873,42.118179322185185,30.417949271008794,32.631899150686785,98.50293665963862,29.828912173325175,72.85443934485419,89.16731641523229,54.18116251975188,34.03588274342098,70.82061297256885,0,16.70177129487281,1,1115541.1410803432,79.55325744016699,97.86407766990291,0,41.15388832883829
134130,University of Florida,Gainesville,1353,32611,FL,5,29.64629,-82.347911,41.63235578504886,51.255611491744645,25.568973181473982,31.545429462193596,97.98089776196255,29.527016979464555,80.2192518887231,87.1574553070548,52.171162435086686,46.31567794639611,74.21023920441044,0,18.25551637852964,1,1190156.9004126077,78.2521882621424,80.07518796992481,0,44.13548156730059
134945,Jacksonville University,Jacksonville,1185,32211-3394,FL,5,30.353227,-81.60458,3.252559226127258,12.575719614522507,95.0674242433192,31.995214399279853,28.32577929902253,26.932675262410122,56.77112341377572,75.54954714579483,57.54754771266256,34.76207500070118,37.62720453387985,1,82.11024323596732,1,1113459.6290594637,79.58967226398767,77.66990291262135,0,39.236450086093384
135726,University of Miami,Coral Gables,1365,33146,FL,5,25.72126,-80.278662,55.1303436636975,63.702223676002895,75.84792472022255,96.1041577889307,28.428522181895882,32.96045703673872,44.44970301513028,73.05013774600766,54.09043241274421,45.4285280573199,67.02232482676241,1,13.313942405901162,1,1638297.8959234266,70.61358203302727,75.5639097744361,0,35.254791296216204
136172,University of North Florida,Jacksonville,1195,32224-7699,FL,5,30.27194,-81.509144,9.414730900310278,17.46783800109411,69.67499878085012,98.25406163770666,29.58548703114673,25.0894223546229,80.06041066472217,86.87477209752804,54.504766930241345,32.11233733163894,45.55498639990264,0,40.55273729364728,1,1123040.9292624104,79.42210693412201,79.6116504854369,0,33.15552992230357
136215,Nova Southeastern University,Fort Lauderdale,1196,33314-7796,FL,5,26.079337,-80.24248,11.556117162132304,20.287610270571136,88.20590740298766,27.64582301414596,26.047209609639978,38.165630801235736,48.66547491645337,68.63002563654716,53.42978524637221,38.636987422996896,33.537631914066715,1,63.98608631223453,2,1599079.353170048,71.27004525252123,79.80582524271844,0,37.413936707877596
136330,Palm Beach Atlantic University,West Palm Beach,1126,33401,FL,5,26.7044,-80.05247,2.1387148176842654,10.312112922373254,95.81776372416712,32.430064656425145,28.540923804535293,22.238980082463456,52.348031627987,67.00198939871312,52.37233628072731,29.441731643295615,44.850005987017894,1,91.41450291545259,1,1532278.1937420378,72.39351107126656,66.2135922330097,0,38.19822413775576
136774,Ringling College of Art and Design,Sarasota,1208.02752068,34234-5895,FL,5,27.360931,-82.547803,13.104791866234244,13.104791866234244,99.76241335007302,34.95530114896939,29.830660177441573,24.848147756557257,10.290213764245483,37.607626505998084,49.775842520939584,24.313776270577595,73.19193924587415,1,47.79180101576919,1,1444686.5725407884,73.876768486627,82.1412661514563,0,30.479183551442098
136950,Rollins College,Winter Park,1213.85442083,32789-4499,FL,5,28.592787,-81.349239,9.627320505749871,9.627320505749871,97.11689733971534,33.33325310950478,29.010772177968313,26.037262815041217,36.146415757053845,73.6481226689,55.787332008891525,33.61898299441127,64.78994787638148,1,47.44358143767408,2,1310572.2740071206,76.17011749641038,83.2727030737864,0,32.676996567276355
137032,Saint Leo University,Saint Leo,1079,33574-6665,FL,5,28.336776,-82.257801,9.05048964846924,14.172827470588956,84.42110602552636,96.99263519650577,28.738907051819456,31.903662147544125,60.87769053715369,84.4746834347136,53.60726334296385,35.108906465141374,30.28896797318134,1,39.581636255597886,2,1335953.0628363057,75.734038515065,57.0873786407767,0,32.70313397254732
137351,University of South Florida,Tampa,1256,33620-9951,FL,5,28.061458,-82.413232,27.540411237421175,35.38725206815738,31.020662603657303,31.984477273167755,98.17352286728472,32.79674993938306,76.55155516612777,87.45551821980658,54.50110323584548,33.91430238127948,55.31190768233804,0,21.51168016378908,1,1366595.321341784,75.2088465202769,91.45631067961165,0,40.739839461298985
137476,St. Thomas University,Miami Gardens,1031,33054-6459,FL,5,25.922071,-80.253273,12.044003551284941,15.091829732984039,90.57941095360697,28.750653919133658,26.72858047071062,45.89806828276447,67.26892946020835,71.70979495713746,54.349578997634026,36.95739862271986,29.492961986552523,1,29.93208575514308,2,1616356.1094285946,70.98057252654162,47.76699029126213,0,32.22380438767946
137546,Stetson University,DeLand,1182.105890026,32723,FL,5,29.035475,-81.300746,8.041004782668082,8.041004782668082,95.57906371693048,32.35992008018406,28.481007641530052,25.617123781729205,44.99435082032028,68.23997000956295,55.834521275960654,26.873528063902604,53.51122035158797,1,49.762460232868136,1,1261724.3868168534,77.01211322602363,77.10793981087379,0,31.739756776801535
137564,Southeastern University,Lakeland,1069,33801-6034,FL,5,28.029733,-81.918382,12.860963283186381,16.75924685592393,95.33883434256893,98.02412221408497,29.07458060603382,24.515583790588224,58.92197825466584,45.86966562830091,56.31007128295443,24.574427921785276,34.317995889394545,1,26.51482142393289,1,1370659.504271553,75.13929431376481,55.14563106796116,0,27.871454353358818
137847,The University of Tampa,Tampa,1182,33606-1490,FL,5,27.948455,-82.46483,13.59900281385269,20.300718567710852,87.16998361003789,98.67534425302091,29.545014488633754,23.746266141195914,44.47986923396056,45.45271220639174,54.0347825293355,33.07052862179757,55.61359278720163,1,27.117475562203303,1,1379205.3633921102,74.99312592210599,77.08737864077669,0,29.647317144469284
137953,Trinity Baptist College,Jacksonville,945,32221,FL,5,30.311171,-81.79626,6.341646701155969,8.788150170566238,99.030052497,34.281165635675066,29.485261773219822,28.09737713674322,70.88825711688861,59.7151789558561,41.72996262459495,13.20137401814334,28.629409237699317,1,51.35662784349739,1,1117232.9439067761,79.52366513343833,31.067961165048544,0,30.40332183657502
138275,Warner University,Lake Wales,996,33859-8797,FL,5,27.825751,-81.599972,18.06670076082666,18.762648998681314,96.9152795511979,32.95475679618249,28.821692581205166,30.337706784676016,64.26207215696226,82.1120954069503,51.90534452584056,29.819218489604193,23.150316056296564,1,15.645802612768422,3,1394478.661082795,74.73216408736808,40.970873786407765,0,28.11213619415878
138293,Webber International University,Babson Park,984,33827-0096,FL,5,27.838778,-81.532315,15.911577713388171,16.85756595124502,97.75310737383879,33.40389933624347,28.944037333197294,33.06890088849895,62.854137198589044,60.32838953968658,46.00067084499567,28.47956193896707,13.956814363295463,1,19.37555135466755,3,1393346.9490794747,74.75148869112586,38.640776699029125,0,28.009271032662554
138354,The University of West Florida,Pensacola,1189,32514-5750,FL,5,30.549076,-87.218511,15.271012646755425,21.555788858376374,81.86131873482164,97.05268891660572,28.73521147150346,23.96739207039829,83.21626858563008,94.65906446520322,55.327811673238486,27.26765099102082,37.535100751803505,0,21.328789548944414,1,1175481.687761294,78.50741947697728,78.44660194174757,0,29.488453820086796
138600,Agnes Scott College,Decatur,1204.37403652,30030-3770,GA,5,33.769268,-84.295459,17.18050602517891,17.18050602517891,99.27399040015665,34.558102396886675,29.654365072821655,33.64993005744631,47.10720247340108,74.13534493637667,58.6442942009498,29.42395576470653,66.50593920175702,1,52.40617258732753,2,751455.5721289837,86.02150898006688,81.43185175145629,0,36.07892261502811
138868,Point University,West Point,998,31833,GA,5,32.87912,-85.184931,11.244605068639332,13.713938971557948,99.13962128928776,34.42657606894075,29.5119044530489,22.87451222966169,67.63930026996157,55.520978612541086,56.492056104956426,24.094520998760235,24.74172193573535,1,31.679977084923394,3,868150.16998738,83.92670389779836,41.359223300970875,0,29.31531038730719
138947,Clark Atlanta University,Atlanta,1032,30314-4391,GA,5,33.747628,-84.412584,14.673105819504984,17.771127661169896,97.33956942599458,33.51652146852188,28.99084269880883,71.35699489662834,43.99960147438858,35.2391723605015,53.28116710132546,26.54595865321095,45.66647488374385,1,30.292210218941335,1,756262.4826754931,85.93481616311277,47.96116504854369,0,35.21964943977557
139144,Berry College,Mount Berry,1232,30149,GA,5,34.290414,-85.189202,8.396786764239211,17.379176846010125,99.17476895027391,34.61056457996374,29.651417400159005,22.153698952467384,45.9754786984346,75.26504069183511,55.370215071700976,24.729351932903256,63.690833920275544,1,46.77648355648342,2,718728.1928522517,86.6126692585254,86.79611650485437,0,33.13457882857939
139199,Brenau University,Gainesville,1031,30501-3668,GA,5,34.303117,-83.821513,10.41859842038074,13.86707304549044,93.90502786413359,31.074706567639335,27.898646300042692,28.050566094813817,57.86691964726884,74.7572198030715,50.01843859590461,32.04028344543115,27.212245401890932,1,35.70138671519946,1,684389.7910255191,87.2346558496464,47.76699029126213,0,32.042423453097776
139205,Brewton-Parker College,Mount Vernon,953,30445,GA,5,32.185718,-82.586136,1.4163733239960283,7.380065143657233,99.67614862228521,34.725167629029535,29.693492340810685,26.331503596856074,71.43557153124617,55.30543509304858,50.84985589142983,22.244917152053763,16.765321453684045,1,94.08908072273543,3,907733.7007337125,83.22076970597787,32.62135922330097,0,38.71855837830098
139311,Clayton  State University,Morrow,1013.3384388899999,30260-0285,GA,5,33.594079,-84.328174,10.942107464714685,10.942107464714685,96.41090719775576,98.86354923380392,29.486343096703582,45.68224023234932,73.62149869061027,67.70814532805214,52.62381767727631,33.76189041909168,30.400656872052522,0,32.936803847657586,2,771146.2754053572,85.66660605656722,44.33756094951455,0,33.770823750307144
139366,Columbus State University,Columbus,1019,31907-5645,GA,5,32.50096,-84.94106,11.441416952036501,14.549614963222876,92.686341212379,97.79014251647286,29.011852905423602,30.06821857941037,73.31184469462288,72.58055840802986,54.51184148437562,25.259684604803244,36.23080932381029,0,35.15523976342513,1,902799.029641402,83.30864666120497,45.43689320388349,0,31.37857286480577
139393,Covenant College,Lookout Mountain,1251,30750-4164,GA,5,34.965161,-85.375066,1.2928105914778052,12.71718782177055,99.06902598625103,34.40055096563749,29.543133205597986,21.289479386261764,49.655823346415644,77.84366845996223,49.23553923063628,27.250024622437405,67.34263459077927,1,94.7954691370638,3,654995.5308214222,87.76849119246565,90.48543689320388,0,40.926403603984255
139630,Emmanuel College,Franklin Springs,1033,30639,GA,5,34.283641,-83.14822,30.46729365173212,32.791151794671705,99.71927229166977,34.8097382634662,29.751280617728984,21.7208495239528,68.61088888936125,52.912123992391514,50.21060224112625,20.935600218941897,37.88325951605138,1,20.939445664893967,3,677695.4482645061,87.35611931612358,48.15533980582524,0,29.65192691845388
139658,Emory University,Atlanta,1443,30322,GA,5,33.790183,-84.325512,67.6881981452608,74.69085843884513,85.63755606848122,94.667215346669,27.559202945613162,30.73378201543625,49.41988782161457,87.64953657007267,53.035601349009916,49.69365001829251,70.66975541806605,1,5.489796958276113,1,749806.2709364658,86.05126217189563,46.2406015037594,0,37.641989178830954
139719,Fort Valley State University,Fort Valley,962,31030-4313,GA,5,32.537595,-83.89537,12.084132588374764,14.257332172740796,97.36180051185397,33.41512064772902,28.980776074206013,61.222428316213644,60.156220125890485,53.939943466908105,55.43240233677242,25.114087186443435,40.516476115218204,0,40.779405554218116,3,879335.8626301518,83.72697973962732,34.36893203883495,0,35.42915567843402
139755,Georgia Institute of Technology-Main Campus,Atlanta,1465,30332-0530,GA,5,33.77242,-84.394832,27.519441639504002,37.56024699929153,61.23118156806788,29.382441655878935,96.9959663108537,28.504409944339102,60.44825755586871,70.72782265443183,44.287702166103145,64.39047282305316,85.94404776540931,0,6.941626868584466,1,753196.4423896339,85.99010831710771,37.96992481203008,0,43.50317172518493
139764,Georgia Southwestern State University,Americus,1037,31709-4693,GA,5,32.054662,-84.217738,6.837101735537509,11.41153517913407,97.18360865853109,33.289428393674854,28.930763894396424,23.85359272978433,77.14249810119325,70.4349679713121,55.305043417667854,26.146349095683615,25.69185581277539,0,50.91575266012105,3,937270.0200027335,82.69554808225277,48.932038834951456,0,32.80801824531614
139861,Georgia College & State University,Milledgeville,1207,31061,GA,5,33.082787,-83.231962,5.355467135936344,14.78588441997118,94.62003877205956,98.13122151162072,29.151312078519172,22.791085647608487,58.745227042931056,60.52845621475868,54.69292848211513,28.617561892875244,56.54180994942891,0,62.85648337078505,3,811495.2392133985,84.94117685632183,81.94174757281553,0,35.71012336803125
139931,Georgia Southern University,Statesboro,1139,30460-8126,GA,5,32.426153,-81.784045,8.561856442677705,15.629254792556427,50.14067855186633,33.355982918398624,98.92609863899922,28.1433972483746,69.4955746065286,63.24853663651268,54.65202691305389,31.41721564021336,47.828723541129634,0,48.77873407179409,3,882113.0402839594,83.6774213999537,68.7378640776699,0,42.46557947108645
139940,Georgia State University,Atlanta,1160,30303-3083,GA,5,33.7527,-84.38667,12.233727416478466,20.023455994959647,40.212667873886986,32.50815424253981,98.44869588759369,41.410399925998405,76.41997617327756,79.53445656504769,55.68884893618646,33.36555075881938,46.44584883629903,0,53.72603347199072,1,755157.7170509213,85.95473758811399,72.81553398058253,0,46.17213848912709
139959,University of Georgia,Athens,1345,30602,GA,5,33.956262,-83.374039,31.008923662186348,41.738163527461644,34.65805443926098,32.43000766061737,98.45934378291635,22.949840450438472,68.48258114953249,69.52041454071842,53.81368771414879,38.01168457238671,76.9871673783469,0,27.058864060095637,1,716241.8067127907,86.65764690466199,83.0827067669173,0,43.11692811792676
140234,LaGrange College,Lagrange,1100,30240-2999,GA,5,33.038564,-85.043113,13.638056539286007,17.932168655994687,97.50498760749875,33.35722782538933,29.04523656491313,19.29175397560342,58.753716197216214,75.87688225165901,56.03769617586849,29.299682177260784,41.01513492877663,1,26.621259512362077,3,847442.7401062609,84.29693676596388,61.165048543689316,0,29.76321042639039
140252,Life University,Marietta,979,30060,GA,5,33.932781,-84.514729,2.3402210142350137,9.048353696838282,89.54456967491679,28.02551291283992,26.33566416061064,33.516402589457684,63.219091681379886,55.7555193325792,55.28646280007631,36.674598422900445,20.273772355490177,1,88.47992402183897,1,738542.2591383784,86.25457259193156,37.66990291262136,0,40.90967907321125
140447,Mercer University,Macon,1279,31207,GA,5,32.829134,-83.649392,9.192353569520213,19.86375748207552,92.92724197471983,30.810034013744016,27.674197256186975,28.986736507108176,50.932145195319336,82.92152653734793,49.75612091099975,35.409350997987715,56.90330198293246,1,54.59196672299808,1,843951.727023567,84.35941670497493,95.92233009708738,0,36.57878158181785
140553,Morehouse College,Atlanta,1120,30314,GA,5,33.745982,-84.414917,11.07938383080017,16.721547376688,99.69770828335015,34.97641255475828,29.79631836862511,65.35272002088529,38.52381924310679,24.995837385425194,44.25981497038378,33.6918109449156,58.93055581430364,1,36.82883838740608,1,756490.9842748235,85.93069599038137,65.04854368932038,0,36.43989642766523
140696,Oglethorpe University,Atlanta,1202,30319-2797,GA,5,33.875441,-84.333687,13.369285213589958,25.735226133319433,99.67614862228521,34.82679239910924,29.729448830436684,26.27646858530526,53.46932207760932,83.58598130079895,54.68402828002547,39.18483015464941,51.71454136613994,1,41.22260132588436,2,740734.3014522697,86.21499229439421,80.97087378640776,0,35.80387391113854
140720,Paine College,Augusta,887,30901-3182,GA,5,33.469545,-81.993225,25.109307470818205,22.24913173862916,99.78399040015665,34.82995402165675,29.800253073895988,72.28939438045454,71.27719405098851,63.669722488288166,56.09689925615236,24.791408085450218,19.970058840832333,1,19.045183487775553,1,765179.6855801297,85.77408579409412,19.805825242718445,0,34.35046618348501
140818,Piedmont University,Demorest,1093,30535-0010,GA,5,34.566042,-83.542126,9.583743581477593,14.842944158391457,92.38074445758485,29.995948653851894,27.368413914050837,18.995643892312785,57.50553755035947,76.90079996179362,54.48673718303695,31.866694281429577,39.66912700613453,1,38.82011172494851,3,651176.365674802,87.8379469311693,59.80582524271845,0,31.916036225494206
140872,Reinhardt University,Waleska,1079,30183-2981,GA,5,34.319756,-84.554264,2.410536120996208,9.198544223512362,98.80029995965396,34.28171092910373,29.474896747438432,25.83221450325573,63.91981387339071,59.65759801881604,53.09851084692707,24.184850747509227,24.35752409287554,1,81.89074297599073,3,697889.137908205,86.98992538062124,57.0873786407767,0,37.67333769349662
140951,Savannah College of Art and Design,Savannah,1157,31402-3146,GA,5,32.072964,-81.09395,1.2255182053315403,10.280214114400929,76.90217461156487,97.69766022813752,29.15132500613863,25.112880426815714,33.67994218450223,31.219359898453227,52.297094596894155,24.657601025006144,62.82679872369353,1,94.63222328276213,1,926787.713581679,82.8817971610927,72.23300970873787,0,39.02044843303862
140960,Savannah State University,Savannah,1251,31404-5310,GA,5,32.024781,-81.063377,23.833365913198694,30.039238672503647,98.93732368748508,34.65211361705432,29.571988201932108,59.37571481304552,77.50648481981105,64.08564173986228,55.03285342861254,25.75833826115875,26.05211991265115,0,11.335664073093792,1,932449.0489424146,82.78118638969262,90.48543689320388,0,32.46288002495937
140988,Shorter University,Rome,1055,30165,GA,5,34.257543,-85.196529,10.237387512736273,14.417394509786302,98.55354352362474,34.081590268589416,29.36821017984312,20.410605749667262,61.05409703046869,62.73243306831225,52.57063628095442,33.72335230700875,28.611712261490457,1,35.299731778429496,1,722400.8721569644,86.54624903865587,52.42718446601942,0,31.42087841859455
141060,Spelman College,Atlanta,1165,30314-4399,GA,5,33.745279,-84.411527,26.01860601077755,33.459588299769976,99.76241335007302,35.03593675084963,29.859190359406256,65.97974918310732,25.71383716343675,39.484159192955474,64.33900009603262,34.40599060517344,71.90947768147988,1,18.733893409596867,1,756494.0120905318,85.93064139556151,73.7864077669903,0,36.1482542351041
141167,Thomas University,Thomasville,953.9705780219999,31792,GA,5,30.815576,-83.963587,13.526065125172604,13.526065125172604,92.63366885674829,30.08937587438553,27.426118944976793,24.923555995068682,60.294223399034294,73.3757352361004,60.90147161329982,27.13209663167193,10.204469465506122,1,26.283318202079997,3,1070060.9960592287,80.35038514517726,32.80982097514562,0,28.4488660310255
141185,Toccoa Falls College,Toccoa Falls,1077,30598,GA,5,34.593414,-83.357617,13.572003708763365,21.163996256193222,99.69770828335015,34.80092716747032,29.734228796342826,20.383741139215562,63.00692190200909,54.79423593222641,52.38395349167416,20.60468229444287,45.63743790194853,1,39.605183487775555,3,645704.7514031659,87.93749238650895,56.69902912621359,0,31.341848111531533
141237,Truett McConnell University,Cleveland,1033,30528,GA,5,34.596306,-83.748911,1.5247130146503602,7.429775891028277,98.21973131525426,33.76533808970111,29.152836530114424,15.640814232326541,67.28874181747577,56.21233578479116,55.014266057890765,20.85198726944526,37.94319102318659,1,87.4832432823913,3,651083.2143674693,87.83964126379328,48.15533980582524,0,37.03934964513283
141264,Valdosta State University,Valdosta,1076,31698,GA,5,30.847402,-83.289282,8.960209394358664,14.061113924099613,85.16861625182446,97.28944955684793,28.829676659823654,29.28887986822597,72.05687205883066,57.17819118903668,54.35068173721727,27.18815316819221,38.722074262505096,0,42.3835397671389,1,1059908.522101293,80.52875027763992,56.50485436893204,0,32.12779574657759
141325,Wesleyan College,Macon,1030,31210-4462,GA,5,32.876037,-83.715417,18.14500999191461,20.611012532404192,98.8221324164598,34.21692006818665,29.513300043129142,25.22417692470001,67.06048245400166,80.66078421594023,59.66350825185429,23.075423560563564,38.7244514587608,1,26.321832992891686,1,839615.7450951623,84.43704479832498,47.57281553398058,0,30.09024767941728
141334,University of West Georgia,Carrollton,1021,30118-0001,GA,5,33.573621,-85.097762,10.063416466685133,13.407118577444209,79.42097122641499,97.59853845747082,29.080293090259996,32.519794934926935,72.03142976417601,56.50827603739799,56.465110775321214,28.5806964841689,41.78753058338562,0,37.18185505376324,3,791764.2245251564,85.29561349041148,45.8252427184466,0,32.425523060766096
141361,Young Harris College,Young Harris,1045,30582,GA,5,34.933523,-83.84587,12.80707645428699,19.248247562824194,99.76241335007302,34.879713574883965,29.803916069471388,20.094601046154775,61.83811975730913,63.428250655626535,52.39951485088858,24.524104950660078,37.37750706269721,1,43.42473886279168,3,616001.9585381631,88.47866044423509,50.48543689320388,0,32.35058526834717
141486,Chaminade University of Honolulu,Honolulu,1070,96816-1578,HI,8,21.28995,-157.807851,1.982884138880003,8.833121789532358,96.20476629124948,32.591772698962785,28.647691945228253,30.737472468725624,54.55310947567839,51.99841145676667,51.97579870502401,30.454214942005787,47.04772173584484,1,95.74140640842359,1,7301530.468069613,0.02485525436068257,55.33980582524272,0,31.389820166238202
141565,University of Hawaii at Hilo,Hilo,1057,96720-4091,HI,8,19.701189,-155.080847,5.533905645871678,10.747701636866669,97.0352460278616,33.27904836266904,28.959958786269926,31.99666333372535,71.91684982233834,70.82859748917541,53.41684673836677,28.56755258203252,34.4125594684622,0,64.12051565430804,3,7175645.80648884,1.071452001831984,52.81553398058252,0,26.85767891164874
141574,University of Hawaii at Manoa,Honolulu,1155,96822-2217,HI,8,21.298598,-157.818979,22.729739200934734,30.35060261370174,72.19969920216474,97.00785695754317,28.961967146582154,35.56915139817646,71.58570387220139,58.1446501767976,55.12470678729796,34.0080735565946,49.12948526111434,0,71.63478962322179,1,7301901.523814191,0.02180543574915646,71.84466019417475,0,31.48737361472864
141644,Hawaii Pacific University,Honolulu,1126,96813,HI,8,21.310306,-157.859645,6.7993014090346096,13.984706468074704,97.48349798732168,33.619950712771406,29.088762022170794,32.26927080433132,55.27454489936436,57.609061087103854,54.09722117949726,38.484202844613534,37.5556799886388,1,58.99576588178784,1,7304555.211008156,0,66.2135922330097,0,27.348379780918727
142115,Boise State University,Boise,1140,83725,ID,7,43.604284,-116.203301,8.394319832056938,16.21264358104699,63.045646221064374,32.912502171205226,98.76516215989203,22.517704471546374,71.20906445603816,64.27924093098595,54.17231926950115,25.445130280543253,41.51108686943256,0,67.32752989731166,1,2806348.104669553,52.11902687173411,68.93203883495146,0,40.34024496087706
142285,University of Idaho,Moscow,1125,83844-2282,ID,7,46.727406,-117.014167,20.988558920786588,27.99670115477818,87.97523797849095,97.3569975152553,28.865374519116056,20.07832997546511,68.61041548868356,61.96435023467247,49.66249239521403,30.714499392336418,54.41558805189607,0,62.07463765761356,3,2862042.558912309,51.28826303047696,66.01941747572815,0,33.26935078748334
142294,The College of Idaho,Caldwell,1192.78685322,83605-4432,ID,7,43.652284,-116.677992,13.121610915459003,13.121610915459003,99.50185873871465,34.70642786600095,29.729052133099287,20.416107893058427,50.576511145361145,71.3083124944561,52.442619795950165,26.869278694040847,57.431797018561944,1,27.618183506345478,2,2844071.644723439,51.55581723816741,79.18191324660194,0,25.467585262666237
142328,Lewis-Clark State College,Lewiston,1009,83501-2698,ID,7,46.412199,-117.024875,1.0739590445480742,9.175692928905477,99.74084064724406,35.09685944961478,29.866805865803105,20.637835614516252,82.06530076691469,73.33478376667709,54.93541028004428,26.664758668108743,21.879968261312392,0,99.79512017418433,1,2862034.754289935,51.288379122019066,43.49514563106796,0,36.83492602538489
142461,Northwest Nazarene University,Nampa,1148,83686-5897,ID,7,43.562411,-116.565783,6.428757976371191,13.95227801130434,94.2316325833994,31.193516691839662,27.901508994176275,18.82869087576632,57.217493594251344,89.67129383254803,54.892984519557764,31.01810986176404,45.19398832392049,1,53.13893547009663,2,2835852.286108394,51.678349880876304,70.48543689320388,0,30.230391771507918
143048,School of the Art Institute of Chicago,Chicago,1226,60603,IL,3,41.88105,-87.625758,10.718703531944392,18.890720550653068,96.6873927400153,33.08249975309605,28.868353905018523,21.80629506538057,31.403909692640774,45.4389627433029,52.15318157639028,19.239397508768064,61.948396491826145,1,37.593892638952,1,475256.92850508523,91.06093633673983,85.63106796116504,0,30.564296647166174
143084,Augustana College,Rock Island,1211.524806552,61201-2296,IL,3,41.502365,-90.55057,12.133222788184653,12.133222788184653,99.74084064724406,35.06258599774476,29.854679363419432,19.680475601949446,34.11113481580838,72.35309324320448,53.961223653282886,36.91402522897345,79.02539587554355,1,43.720983389355716,1,702304.33824473,86.90994123470695,82.82035078679611,0,33.589100679671816
143118,Aurora University,Aurora,1068,60506-4892,IL,3,41.753631,-88.349023,4.01119949933172,10.136706494908736,94.56802732474992,31.751720664463,28.09632454679476,27.7434509845325,60.529153592704276,78.7804586106687,54.04269911395201,32.65551570539872,43.90583447263265,1,67.95671137026477,2,528299.6900088603,90.08426385157314,54.95145631067961,0,37.756559376817336
143288,Blackburn College,Carlinville,1050,62626,IL,3,39.287896,-89.870241,14.358039871929542,17.903796539570056,99.76241335007302,34.82272399793731,29.78375223411249,16.811989105379617,65.16308817179082,82.56018596123728,53.08608768377896,25.041765456751524,40.24584333692805,1,29.983402583057135,3,654093.7982379495,87.78488822414648,51.45631067961165,0,30.03698529209067
143358,Bradley University,Peoria,1212,61625-0001,IL,3,40.696896,-89.616786,8.847379774226747,17.353788868152208,96.48241368095191,33.165153182693686,28.865784070127535,22.46475197397418,42.22672056604661,70.47600130722303,48.49815581324262,40.160695250091514,76.70114590889487,1,47.66268400772849,1,616812.3646684138,88.46387775356855,82.9126213592233,0,35.67233671449628
144005,Chicago State University,Chicago,972,60628-1598,IL,3,41.718446,-87.609384,27.706029153189256,26.385938022586984,95.10204044041988,31.938935889556223,28.35661463559119,61.241898278281006,60.90063101069076,90.44734099878792,54.00192433944096,34.334417640093406,17.028929941249398,0,13.739112439883852,1,468245.2452120126,91.19035756561851,36.310679611650485,0,34.73776014695724
144050,University of Chicago,Chicago,1520,60637,IL,3,41.787994,-87.599539,86.85375104624225,90.1290127726327,85.47168644474053,93.7811571233902,27.14173263471492,29.926743592274605,45.6282387328307,84.81379560404808,46.672781755021575,50.928709274274276,85.04954369037034,1,1.4461624482378532,1,469844.79013716336,91.16082677278837,17.293233082706777,0,39.401517674426096
144281,Columbia College Chicago,Chicago,1089.217275154,60605-1996,IL,3,41.874261,-87.624667,3.478849925506715,3.478849925506715,94.230594704194,99.33870069386138,29.829281933576688,25.06495637650778,39.68528596237595,44.91828377572093,57.59012721547796,24.28627644579718,41.956899487659314,1,76.82467943956652,1,474920.6639850435,91.0671414045507,59.07131556388348,0,36.345171907050286
144351,Concordia University-Chicago,River Forest,1102,60305-1499,IL,3,41.898696,-87.809482,5.282914569454786,11.915655654489571,88.4678916927536,27.42005948179393,26.075692138124065,26.082668286415892,61.695496509944476,82.92128754215548,54.0286407795617,29.74389812626932,40.45026104432745,1,60.249874654141124,2,490281.9197380011,90.78385412417914,61.55339805825243,0,35.95564929469319
144740,DePaul University,Chicago,1241.562134752,60604,IL,3,41.877618,-87.62724,9.640665840189973,9.640665840189973,66.25471095229788,96.10568486721992,28.557075342751624,27.644467867931986,40.56495764956535,61.336167424905746,54.05840777766112,44.85815755450176,60.90180502560367,1,48.59618110156143,1,475245.8077401431,91.06114154479812,88.65284169941748,0,36.145410181206024
